{"type":"FeatureCollection","features":[{"type":"Feature","properties":{"name":"Kakaricka gora (Masline) - Zabjelo","type":"bus-line","id":103},"geometry":{"type":"LineString","coordinates":[[42.44519305,19.30404484],[42.44530609,19.30239201],[42.4457644,19.30087805],[42.44498413,19.30024505],[42.44433668,19.29977477],[42.4440653,19.29954469],[42.44367208,19.29905593],[42.44352209,19.2986995],[42.44333207,19.29847121],[42.44314294,19.2981565],[42.44310687,19.29785073],[42.44298371,19.29753661],[42.44261995,19.29710865],[42.4422452,19.29681063],[42.44166194,19.29651678],[42.44131005,19.29628372],[42.44119789,19.29608107],[42.44098367,19.29583609],[42.44080201,19.29583609],[42.44068412,19.29575354],[42.44063794,19.29558843],[42.44063398,19.29543972],[42.44071118,19.2951557],[42.44061265,19.29486722],[42.44055392,19.29460645],[42.44048024,19.29420084],[42.44034344,19.29392815],[42.440162,19.29379433],[42.43999397,19.2937392],[42.43972564,19.29371953],[42.4395807,19.29374158],[42.43940497,19.29380536],[42.4392387,19.29372489],[42.43896554,19.29342747],[42.4388151,19.2932421],[42.43875351,19.292925],[42.4387368,19.29270089],[42.43855381,19.29214239],[42.43849882,19.29187775],[42.43839105,19.29180264],[42.43841832,19.29170668],[42.43849838,19.29160535],[42.43887448,19.29155231],[42.4391714,19.29130554],[42.4399469,19.29151297],[42.44050994,19.29162502],[42.44092121,19.29010391],[42.44122208,19.28978741],[42.44136504,19.28919673],[42.44141694,19.28872108],[42.44152295,19.28783476],[42.44145697,19.28712487],[42.4414275,19.28661168],[42.4414794,19.28609669],[42.44149875,19.28575456],[42.44160212,19.28539395],[42.4419782,19.28468585],[42.44203362,19.28446591],[42.44229886,19.28228259],[42.44241366,19.28135455],[42.44258389,19.28008318],[42.44266702,19.2793107],[42.4428412,19.27764773],[42.44292037,19.27740633],[42.44274619,19.27706301],[42.44252846,19.27681625],[42.44229886,19.27658558],[42.44200195,19.27609205],[42.44193862,19.27579701],[42.44162983,19.27428961],[42.44132105,19.27270174],[42.44134084,19.27187026],[42.44149524,19.27082956],[42.44159025,19.27050233],[42.44240442,19.26775038],[42.4428931,19.26607549],[42.44321068,19.26500618],[42.44359158,19.26370084],[42.44396018,19.26243782],[42.44428038,19.2612958],[42.44566763,19.2566514],[42.44634057,19.25429106],[42.44737768,19.25082564],[42.4475756,19.25065398],[42.44744893,19.25042868],[42.44695721,19.25029755],[42.44644701,19.25007343],[42.44513719,19.24937725],[42.44364877,19.2485404],[42.44170109,19.24753189],[42.43946832,19.24637318],[42.43914369,19.24616933],[42.43862111,19.24589574],[42.43883093,19.24450636],[42.4390082,19.24325943],[42.43788474,19.24272537],[42.43676917,19.24252272],[42.43605742,19.24254537],[42.4353175,19.24273729],[42.43371974,19.24311638],[42.43047307,19.243927],[42.42958615,19.24416304],[42.42763803,19.24463511],[42.42685798,19.24533486],[42.42651591,19.24589992],[42.42626843,19.24655974],[42.42458508,19.25222039],[42.42382875,19.25181806],[42.42335752,19.25154448],[42.4221537,19.25088465],[42.4218237,19.25069004],[42.42183822,19.25052464],[42.42160612,19.25019354],[42.42139992,19.24988916],[42.42120894,19.24952979],[42.42107637,19.24924419],[42.42089452,19.24867665],[42.42085282,19.24858932],[42.42080122,19.24850735],[42.42069208,19.24837695],[42.42034262,19.24800349],[42.41984283,19.24749467],[42.41919122,19.24687896],[42.41922642,19.24690965],[42.41985836,19.24751223],[42.42069518,19.24837231],[42.42084334,19.24857489],[42.4209282,19.24876658],[42.42108368,19.24925451],[42.42121593,19.24954409],[42.42158082,19.25015688],[42.42185098,19.25053954],[42.42183074,19.25068021],[42.42336544,19.25154984],[42.42391586,19.25186634],[42.42459872,19.25225019],[42.42549627,19.24926281],[42.42633926,19.24645901],[42.42654253,19.24587488],[42.42700449,19.24521446],[42.42749813,19.24479961],[42.42778058,19.2446363],[42.43308098,19.24328446],[42.43538085,19.2427206],[42.43566415,19.24261808],[42.43672167,19.24255252],[42.43771406,19.24272537],[42.43897741,19.24328327],[42.43869237,19.24538612],[42.43860923,19.24593329],[42.43967242,19.24647927],[42.44299691,19.24823523],[42.44513785,19.24940437],[42.44637708,19.2500484],[42.44727872,19.25057352],[42.44734997,19.25075054],[42.44699767,19.25197303],[42.44578947,19.2560631],[42.44418274,19.26138818],[42.44362897,19.26326036],[42.44309455,19.26498771],[42.4425289,19.26687896],[42.44183789,19.26925421],[42.4414121,19.27075982],[42.44126959,19.27168787],[42.44125771,19.27219212],[42.4413448,19.27285731],[42.4414794,19.27356005],[42.44191486,19.27568972],[42.44201383,19.27607596],[42.44220781,19.27643001],[42.44281437,19.27715421],[42.44291641,19.27743852],[42.4428412,19.27764237],[42.44275807,19.2785275],[42.44264327,19.27960575],[42.44255705,19.28025365],[42.44238595,19.28153157],[42.44227643,19.28235531],[42.44210664,19.28368509],[42.44198216,19.28468049],[42.44159025,19.28539395],[42.44150337,19.28576559],[42.44144245,19.2863512],[42.44143981,19.28673267],[42.44151371,19.28754389],[42.44152691,19.28791285],[42.44142728,19.28862721],[42.44137911,19.28915918],[42.44122824,19.28976357],[42.44088074,19.2901516],[42.44052973,19.29158747],[42.44042636,19.29162204],[42.43916392,19.29129362],[42.43886172,19.29156363],[42.43848079,19.29161489],[42.43841524,19.29170251],[42.43837917,19.29182351],[42.43849882,19.29186344],[42.43854501,19.29215252],[42.43867389,19.29246664],[42.4387412,19.29271698],[42.43873922,19.29289907],[42.43880894,19.29323971],[42.4392365,19.29372728],[42.4393755,19.29380894],[42.43958268,19.29373622],[42.43998781,19.29373592],[42.44017431,19.29380596],[42.44034366,19.29394066],[42.44047299,19.29417998],[42.44053633,19.29444373],[42.44060451,19.29486394],[42.44071667,19.29514587],[42.4406419,19.29542005],[42.44063002,19.29557681],[42.44068412,19.29576397],[42.44081432,19.29584265],[42.44098675,19.29582268],[42.44123264,19.29611623],[42.44129994,19.2962575],[42.44143981,19.29639339],[42.44225223,19.29681182],[42.4426072,19.29709375],[42.44299779,19.29755986],[42.44311325,19.29787159],[42.44313194,19.2981267],[42.44341125,19.29857015],[42.4435388,19.29871142],[42.44365052,19.29901004],[42.4437728,19.29920852],[42.44402703,19.29949939],[42.44428214,19.29974079],[42.44492079,19.30019259],[42.44576923,19.30089474],[42.44530037,19.30244267],[42.44519525,19.30395067]]}},{"type":"Feature","properties":{"name":"Kakaricka Gora (okreti\u0161te)","id":1691,"type":"bus-stop","line_id":103},"geometry":{"type":"Point","coordinates":[19.30411599,42.44516259]}},{"type":"Feature","properties":{"name":"Biv\u0161a kasarna Masline (A)","id":1692,"type":"bus-stop","line_id":103},"geometry":{"type":"Point","coordinates":[19.28471809,42.44194892]}},{"type":"Feature","properties":{"name":"Goce Del\u010deva (A)","id":1693,"type":"bus-stop","line_id":103},"geometry":{"type":"Point","coordinates":[19.28156826,42.44237769]}},{"type":"Feature","properties":{"name":"Bulevar Ivana Crnojevi\u0107a I (A)","id":1466,"type":"bus-stop","line_id":103},"geometry":{"type":"Point","coordinates":[19.26923499,42.44181787]}},{"type":"Feature","properties":{"name":"Ul. 13. jula (A)","id":1694,"type":"bus-stop","line_id":103},"geometry":{"type":"Point","coordinates":[19.255482,42.446077]}},{"type":"Feature","properties":{"name":"Zgrada Vektre (A)","id":1494,"type":"bus-stop","line_id":103},"geometry":{"type":"Point","coordinates":[19.247515,42.441781]}},{"type":"Feature","properties":{"name":"KBC (A)","id":1495,"type":"bus-stop","line_id":103},"geometry":{"type":"Point","coordinates":[19.245366,42.438717]}},{"type":"Feature","properties":{"name":"Vojvode Ilije Plamenca I (A)","id":1571,"type":"bus-stop","line_id":103},"geometry":{"type":"Point","coordinates":[19.2440021,42.42996428]}},{"type":"Feature","properties":{"name":"27. marta (A)","id":1695,"type":"bus-stop","line_id":103},"geometry":{"type":"Point","coordinates":[19.25138019,42.42476723]}},{"type":"Feature","properties":{"name":"Soliteri Zabjelo (A)","id":1572,"type":"bus-stop","line_id":103},"geometry":{"type":"Point","coordinates":[19.25186634,42.42391586]}},{"type":"Feature","properties":{"name":"Kod PEP gara\u017ee (A)","id":1660,"type":"bus-stop","line_id":103},"geometry":{"type":"Point","coordinates":[19.24975287,42.42137836]}},{"type":"Feature","properties":{"name":"Du\u0161ana Milutinovi\u0107a (A)","id":1696,"type":"bus-stop","line_id":103},"geometry":{"type":"Point","coordinates":[19.24692574,42.41915079]}},{"type":"Feature","properties":{"name":"Kod PEP gara\u017ee (B)","id":1697,"type":"bus-stop","line_id":103},"geometry":{"type":"Point","coordinates":[19.25005924,42.42140652]}},{"type":"Feature","properties":{"name":"Soliteri Zabjelo (B)","id":1583,"type":"bus-stop","line_id":103},"geometry":{"type":"Point","coordinates":[19.25181806,42.42382875]}},{"type":"Feature","properties":{"name":"27. marta (B)","id":1698,"type":"bus-stop","line_id":103},"geometry":{"type":"Point","coordinates":[19.24938094,42.42550458]}},{"type":"Feature","properties":{"name":"Vojvode Ilije Plamenca I (B)","id":1584,"type":"bus-stop","line_id":103},"geometry":{"type":"Point","coordinates":[19.2441389,42.4299425]}},{"type":"Feature","properties":{"name":"KBC (B)","id":1509,"type":"bus-stop","line_id":103},"geometry":{"type":"Point","coordinates":[19.246174,42.438959]}},{"type":"Feature","properties":{"name":"Zgrada Vektre (B)","id":1510,"type":"bus-stop","line_id":103},"geometry":{"type":"Point","coordinates":[19.247621,42.4417]}},{"type":"Feature","properties":{"name":"Mala pijaca (B)","id":1699,"type":"bus-stop","line_id":103},"geometry":{"type":"Point","coordinates":[19.24936652,42.44507385]}},{"type":"Feature","properties":{"name":"Ul. 13. jula (B)","id":1700,"type":"bus-stop","line_id":103},"geometry":{"type":"Point","coordinates":[19.254951,42.446057]}},{"type":"Feature","properties":{"name":"Bulevar Ivana Crnojevi\u0107a II (B)","id":1486,"type":"bus-stop","line_id":103},"geometry":{"type":"Point","coordinates":[19.26729709,42.44258586]}},{"type":"Feature","properties":{"name":"Bulevar Ivana Crnojevi\u0107a I (B)","id":1487,"type":"bus-stop","line_id":103},"geometry":{"type":"Point","coordinates":[19.27050233,42.44159025]}},{"type":"Feature","properties":{"name":"Goce Del\u010deva (B)","id":1701,"type":"bus-stop","line_id":103},"geometry":{"type":"Point","coordinates":[19.28153157,42.44238595]}},{"type":"Feature","properties":{"name":"Biv\u0161a kasarna Masline (B)","id":1702,"type":"bus-stop","line_id":103},"geometry":{"type":"Point","coordinates":[19.28468596,42.44195132]}},{"type":"Feature","properties":{"name":"Du\u0161ana Milutinovi\u0107a (B)","id":1703,"type":"bus-stop","line_id":103},"geometry":{"type":"Point","coordinates":[19.24700748,42.41937389]}},{"type":"Feature","properties":{"name":"27. marta II (B)","id":1704,"type":"bus-stop","line_id":103},"geometry":{"type":"Point","coordinates":[19.25549805,42.42357135]}}]}