{"type":"FeatureCollection","features":[{"type":"Feature","properties":{"name":"Konik - Delta City","type":"bus-line","id":110},"geometry":{"type":"LineString","coordinates":[[42.42213005,19.29632687],[42.42532914,19.29390953],[42.42712787,19.29257532],[42.42804025,19.2919078],[42.42861176,19.29149894],[42.42881044,19.29135578],[42.42893796,19.29126405],[42.42897242,19.29125637],[42.42902012,19.29128419],[42.42906287,19.29134151],[42.4291291,19.29153263],[42.42920895,19.2917525],[42.42925002,19.29168866],[42.42939701,19.29130698],[42.42956676,19.29084871],[42.42991416,19.28992196],[42.4310672,19.28686518],[42.43115333,19.28669134],[42.4322784,19.28527242],[42.43235094,19.28519685],[42.43241755,19.28515683],[42.43247603,19.28503387],[42.43251677,19.2849034],[42.43300067,19.28340583],[42.43301735,19.28335561],[42.43306348,19.28334791],[42.43311011,19.28331808],[42.43314443,19.28327192],[42.43316242,19.28323448],[42.43318072,19.28315781],[42.43317824,19.28309433],[42.43316487,19.28303488],[42.43313071,19.28297632],[42.43317387,19.28287306],[42.43433673,19.27918159],[42.43539094,19.27581676],[42.43548643,19.27553594],[42.43552307,19.27546717],[42.43557853,19.27539036],[42.43568193,19.275353],[42.43574212,19.27524753],[42.43576917,19.27510455],[42.43573013,19.27494735],[42.43573014,19.27486368],[42.43575646,19.27467388],[42.43584465,19.27431229],[42.4359933,19.27389317],[42.43625021,19.27316003],[42.43672463,19.27182935],[42.43714864,19.2706851],[42.43729351,19.27029253],[42.43733833,19.27022152],[42.43737074,19.27014639],[42.43740581,19.26998625],[42.43742814,19.26977657],[42.43743192,19.26957813],[42.43741945,19.26938882],[42.43737886,19.26905688],[42.43733275,19.26867182],[42.43732778,19.26829985],[42.4373382,19.26815293],[42.43736644,19.26797383],[42.43763319,19.26700012],[42.43748759,19.26684989],[42.43711768,19.26638529],[42.43704592,19.266253],[42.43699298,19.26613412],[42.4369318,19.26594328],[42.43686964,19.26570818],[42.43683263,19.26554188],[42.43681735,19.26539689],[42.43680762,19.26517442],[42.43680632,19.26499461],[42.43680366,19.26463619],[42.43681158,19.26414098],[42.43682161,19.26386697],[42.43682075,19.26359967],[42.43680876,19.26349141],[42.43677602,19.26335658],[42.43668398,19.26309136],[42.43662382,19.26293967],[42.43659499,19.26279931],[42.436581,19.26266707],[42.43657825,19.26251988],[42.43658145,19.26238209],[42.43659833,19.26227488],[42.43661056,19.26222592],[42.43677975,19.2618826],[42.43695952,19.26158264],[42.43700105,19.26151113],[42.43710395,19.26128828],[42.43716376,19.26132202],[42.4376852,19.26159696],[42.43822021,19.26189214],[42.43900771,19.26227339],[42.4396039,19.26022142],[42.43992938,19.25909852],[42.44004853,19.25869618],[42.44074845,19.25633289],[42.44121118,19.25478179],[42.44170186,19.25309762],[42.44210647,19.25172933],[42.44261495,19.25000049],[42.44311468,19.24828864],[42.44112531,19.24722135],[42.44086199,19.24707502],[42.44058878,19.24694814],[42.44007006,19.24667358],[42.43860551,19.24588642],[42.43880632,19.24439262],[42.4389253,19.24348757],[42.43895141,19.24338144],[42.43900347,19.24331745],[42.43956064,19.24361639],[42.44121597,19.24450668],[42.44139849,19.24460584],[42.44147698,19.24466603],[42.44153658,19.24473189],[42.44154824,19.24481128],[42.44157906,19.24489099],[42.44164157,19.2449704],[42.44170092,19.245001],[42.44179014,19.24500619],[42.44187225,19.24496008],[42.44192039,19.24490518],[42.44194775,19.24483486],[42.44196825,19.24474481],[42.44195804,19.24464659],[42.44193475,19.24456798],[42.44190875,19.24451929],[42.44183132,19.24444969],[42.44176676,19.24442923],[42.44169014,19.24435817],[42.44163233,19.24426968],[42.441144,19.24304604],[42.44020621,19.2406558],[42.43956987,19.23902757],[42.43896378,19.23747122],[42.4389308,19.23733651],[42.43895141,19.23724495],[42.43905755,19.23709704],[42.4390964,19.23698802],[42.43979317,19.23649759],[42.44061439,19.23591721],[42.44131487,19.23540866],[42.4416726,19.2351539],[42.44182573,19.23504797],[42.44192803,19.23500037],[42.44204022,19.23495948],[42.4221363,19.29632177],[42.42250428,19.29601514],[42.42291136,19.29570047],[42.42372155,19.29510197],[42.42532804,19.29391571],[42.42717109,19.29254413],[42.42760342,19.29222366],[42.42804836,19.29190214],[42.42893822,19.29126448],[42.42897253,19.29125943],[42.4289986,19.2912683],[42.42902467,19.29129058],[42.42906063,19.29133881],[42.42920779,19.29175042],[42.42923615,19.2917137],[42.42926056,19.2916676],[42.42944399,19.29117844],[42.43057359,19.28816751],[42.43108497,19.28682379],[42.43115442,19.28669229],[42.43179075,19.28588709],[42.43228749,19.28525729],[42.43234517,19.28520269],[42.43241571,19.28515613],[42.4324099,19.28509454],[42.43240805,19.28502624],[42.43241821,19.28496742],[42.43275604,19.28389117],[42.43293196,19.28333096],[42.43289385,19.28328711],[42.43286762,19.28323386],[42.43285177,19.28317297],[42.43285029,19.28310531],[42.43286266,19.28304167],[42.43288987,19.28298474],[42.43292798,19.28294524],[42.43296558,19.28291834],[42.43301457,19.28291093],[42.43305862,19.28291693],[42.43314829,19.2826432],[42.43330622,19.2821157],[42.4343472,19.27881759],[42.43486867,19.27716451],[42.43537035,19.27549802],[42.43538799,19.27538782],[42.43538734,19.2752555],[42.43536406,19.27518232],[42.43535761,19.27508232],[42.43536996,19.27501352],[42.43539735,19.27494694],[42.43545013,19.27488349],[42.43554356,19.27483298],[42.43559203,19.27479319],[42.43563654,19.27472457],[42.43569981,19.27461531],[42.43575416,19.27450337],[42.43584338,19.27431904],[42.43624982,19.27316308],[42.43673431,19.27180469],[42.43714017,19.2707023],[42.43727718,19.27034494],[42.43729871,19.27027831],[42.43728857,19.2701996],[42.43729798,19.27011863],[42.43732542,19.26996797],[42.437339,19.2697677],[42.43734244,19.26958073],[42.4373241,19.26936828],[42.43723647,19.26870213],[42.4372306,19.26843901],[42.43724949,19.26813402],[42.43728699,19.26793523],[42.43756883,19.26693804],[42.43744573,19.26680044],[42.43726213,19.26656537],[42.43711787,19.26638547],[42.43707853,19.26631555],[42.43700647,19.26616818],[42.43695124,19.26601678],[42.43690047,19.26582208],[42.43686741,19.26570864],[42.43683336,19.26554423],[42.4368165,19.26539574],[42.43680642,19.26504373],[42.43680392,19.2646534],[42.43680494,19.26437486],[42.43681586,19.26406279],[42.43682102,19.26360257],[42.43680901,19.26348988],[42.43678067,19.26336714],[42.43669681,19.2631229],[42.43662041,19.26292997],[42.43659497,19.2628061],[42.43658123,19.26266834],[42.43657856,19.26252235],[42.43658183,19.26237635],[42.43660822,19.26222876],[42.4366653,19.26210933],[42.43677822,19.26188794],[42.43699469,19.26152391],[42.43710462,19.26129128],[42.43821746,19.26189161],[42.43893282,19.2622356],[42.4394615,19.26042497],[42.43975256,19.25943087],[42.43996015,19.25872021],[42.44063838,19.25638795],[42.44108921,19.2547866],[42.44181095,19.2523253],[42.44299999,19.24822673],[42.44097339,19.24713523],[42.44079911,19.24704597],[42.44049121,19.24690172],[42.44007535,19.24667895],[42.43860682,19.24588921],[42.43878614,19.244541],[42.43887972,19.24384401],[42.43892531,19.24349685],[42.43895229,19.24338027],[42.43895155,19.24328918],[42.43896493,19.24314589],[42.4391742,19.24328248],[42.43968039,19.24355183],[42.43971098,19.24346168],[42.44020719,19.24272791],[42.4403193,19.2425549],[42.4403856,19.24245419],[42.44052342,19.24225216],[42.44059882,19.24216509],[42.44065937,19.24212362],[42.4405283,19.24177073],[42.44034003,19.24126491],[42.43956666,19.23936424],[42.43882692,19.2374333],[42.43878744,19.2374298],[42.43874747,19.2374149],[42.43871294,19.23738324],[42.43868533,19.2373395],[42.4386665,19.23725959],[42.43867538,19.23716896],[42.43869836,19.23711918],[42.4387352,19.23707612],[42.43876649,19.23705487],[42.43880965,19.23704971],[42.43886777,19.23706688],[42.43902211,19.23699658],[42.43909332,19.23699133],[42.44056621,19.23595004],[42.44130155,19.23541845],[42.44167451,19.23515186],[42.44203362,19.23491478]]}},{"type":"Feature","properties":{"name":"Proleterska (okretište)","id":1828,"type":"bus-stop","line_id":110},"geometry":{"type":"Point","coordinates":[42.42211806,19.29638028]}},{"type":"Feature","properties":{"name":"Proleterska I","id":1829,"type":"bus-stop","line_id":110},"geometry":{"type":"Point","coordinates":[42.42511965,19.29401726]}},{"type":"Feature","properties":{"name":"Proleterska II","id":1830,"type":"bus-stop","line_id":110},"geometry":{"type":"Point","coordinates":[42.42787561,19.29202169]}},{"type":"Feature","properties":{"name":"Reciklažno dvorište (okretište)","id":1705,"type":"bus-stop","line_id":110},"geometry":{"type":"Point","coordinates":[42.429098,19.291564]}},{"type":"Feature","properties":{"name":"Pera Ćetkovića I (A)","id":1706,"type":"bus-stop","line_id":110},"geometry":{"type":"Point","coordinates":[42.432771,19.284194]}},{"type":"Feature","properties":{"name":"Pera Ćetkovića III (A)","id":1708,"type":"bus-stop","line_id":110},"geometry":{"type":"Point","coordinates":[42.434499,19.27883]}},{"type":"Feature","properties":{"name":"V Proleterske brigade (A)","id":1613,"type":"bus-stop","line_id":110},"geometry":{"type":"Point","coordinates":[42.437458,19.269349]}},{"type":"Feature","properties":{"name":"Ćukovica brijeg (A)","id":1612,"type":"bus-stop","line_id":110},"geometry":{"type":"Point","coordinates":[42.43692112,19.26580177]}},{"type":"Feature","properties":{"name":"Most Braće Zlatičanin (A)","id":1464,"type":"bus-stop","line_id":110},"geometry":{"type":"Point","coordinates":[42.43739778,19.26152229]}},{"type":"Feature","properties":{"name":"Bulevar Svetog Petra Cetinjskog I (A)","id":1493,"type":"bus-stop","line_id":110},"geometry":{"type":"Point","coordinates":[42.44239,19.250911]}},{"type":"Feature","properties":{"name":"Zgrada Vektre (A)","id":1494,"type":"bus-stop","line_id":110},"geometry":{"type":"Point","coordinates":[42.441781,19.247515]}},{"type":"Feature","properties":{"name":"KBC (A)","id":1495,"type":"bus-stop","line_id":110},"geometry":{"type":"Point","coordinates":[42.438717,19.245366]}},{"type":"Feature","properties":{"name":"Capital Plaza I (A)","id":1496,"type":"bus-stop","line_id":110},"geometry":{"type":"Point","coordinates":[42.440194,19.244021]}},{"type":"Feature","properties":{"name":"Capital plaza II (A)","id":1497,"type":"bus-stop","line_id":110},"geometry":{"type":"Point","coordinates":[42.440302,19.240815]}},{"type":"Feature","properties":{"name":"Studentska (A)","id":1678,"type":"bus-stop","line_id":110},"geometry":{"type":"Point","coordinates":[42.440231,19.236343]}},{"type":"Feature","properties":{"name":"Studentska (okretište)","id":1831,"type":"bus-stop","line_id":110},"geometry":{"type":"Point","coordinates":[42.44207123,19.23493456]}},{"type":"Feature","properties":{"name":"Trg Božane Vučinić","id":1773,"type":"bus-stop","line_id":110},"geometry":{"type":"Point","coordinates":[42.43649908,19.26256835]}},{"type":"Feature","properties":{"name":"Most Braće Zlatičanin (B)","id":1489,"type":"bus-stop","line_id":110},"geometry":{"type":"Point","coordinates":[42.43868445,19.26202118]}},{"type":"Feature","properties":{"name":"Studentska (B)","id":1680,"type":"bus-stop","line_id":110},"geometry":{"type":"Point","coordinates":[42.440263,19.236068]}},{"type":"Feature","properties":{"name":"Capital plaza II (B)","id":1508,"type":"bus-stop","line_id":110},"geometry":{"type":"Point","coordinates":[42.440506,19.24185]}},{"type":"Feature","properties":{"name":"KBC (B)","id":1509,"type":"bus-stop","line_id":110},"geometry":{"type":"Point","coordinates":[42.438959,19.246174]}},{"type":"Feature","properties":{"name":"Zgrada Vektre (B)","id":1510,"type":"bus-stop","line_id":110},"geometry":{"type":"Point","coordinates":[42.4417,19.247621]}},{"type":"Feature","properties":{"name":"Bulevar Svetog Petra Cetinjskog I (B)","id":1511,"type":"bus-stop","line_id":110},"geometry":{"type":"Point","coordinates":[42.441624,19.252771]}},{"type":"Feature","properties":{"name":"Ćukovica brijeg (B)","id":1774,"type":"bus-stop","line_id":110},"geometry":{"type":"Point","coordinates":[42.43692527,19.26601413]}},{"type":"Feature","properties":{"name":"V Proleterske brigade (B)","id":1718,"type":"bus-stop","line_id":110},"geometry":{"type":"Point","coordinates":[42.4373,19.269658]}},{"type":"Feature","properties":{"name":"Pera Ćetkovića III (B)","id":1719,"type":"bus-stop","line_id":110},"geometry":{"type":"Point","coordinates":[42.434484,19.27826]}},{"type":"Feature","properties":{"name":"Pera Ćetkovića I (B)","id":1721,"type":"bus-stop","line_id":110},"geometry":{"type":"Point","coordinates":[42.432618,19.284215]}}]}