{"type":"FeatureCollection","features":[{"type":"Feature","properties":{"name":"Konik - Tolo\u0161i","type":"bus-line","id":107},"geometry":{"type":"LineString","coordinates":[[42.42443417,19.30218339],[42.42532489,19.30109964],[42.42569697,19.30081449],[42.42664828,19.30009832],[42.42706509,19.29978023],[42.42723981,19.29966805],[42.42896848,19.2983138],[42.42940496,19.29797689],[42.42986004,19.29764272],[42.43030201,19.2973253],[42.43118041,19.29666586],[42.431826,19.29620005],[42.43208487,19.29603711],[42.43254945,19.29577403],[42.43304886,19.29547831],[42.43346235,19.29519516],[42.43389581,19.29485789],[42.43455099,19.29433981],[42.43532302,19.29371042],[42.43577371,19.29338542],[42.43585587,19.29323957],[42.43606679,19.29141225],[42.43625766,19.28934276],[42.43630013,19.28901199],[42.43634083,19.2888503],[42.436408,19.28867433],[42.43646079,19.28857953],[42.43655516,19.2884512],[42.43768551,19.28722445],[42.43844016,19.28640165],[42.43885232,19.28595968],[42.4389306,19.28584634],[42.43906481,19.28557273],[42.43928762,19.28510301],[42.43949716,19.28464047],[42.43954926,19.28452082],[42.43956501,19.2844278],[42.43956394,19.28433211],[42.43955535,19.28425934],[42.43953983,19.28418524],[42.43948873,19.28408458],[42.43935145,19.28381666],[42.43920426,19.28354875],[42.43891198,19.28302139],[42.43853352,19.28232779],[42.43836202,19.28200355],[42.43827961,19.28182104],[42.43823874,19.281688],[42.43821588,19.28152655],[42.43817667,19.2806841],[42.43813195,19.27988723],[42.43810494,19.27950197],[42.43808706,19.27935739],[42.43805424,19.27920804],[42.43796028,19.27892626],[42.43790098,19.27878371],[42.43776069,19.27853687],[42.43761382,19.2783477],[42.437397,19.27814757],[42.43723135,19.27802412],[42.43712303,19.27797853],[42.43714157,19.27791971],[42.43715555,19.27784006],[42.43716771,19.277649],[42.43718231,19.27739588],[42.4372147,19.27688786],[42.43725472,19.27647959],[42.43729581,19.27602638],[42.43701991,19.27587807],[42.43667284,19.27567869],[42.43644827,19.27554846],[42.43611857,19.27535951],[42.43597428,19.27526236],[42.43586111,19.2752],[42.43577439,19.27509933],[42.43574607,19.27499598],[42.43572856,19.27494167],[42.43572887,19.27486591],[42.43574131,19.27475798],[42.43582601,19.27438048],[42.43609663,19.27360013],[42.4364888,19.27248298],[42.43714445,19.27069466],[42.43729371,19.27028821],[42.43734122,19.27021903],[42.43737318,19.27013112],[42.43740618,19.26998317],[42.43742766,19.26976895],[42.43743017,19.26958447],[42.43742495,19.26945649],[42.43733457,19.26870273],[42.43732283,19.26843172],[42.43733569,19.26815162],[42.4373685,19.26796958],[42.43763029,19.26699667],[42.43752229,19.26689015],[42.43712094,19.26639187],[42.43699237,19.2661316],[42.43695177,19.26601566],[42.43691551,19.26588212],[42.43684855,19.2656219],[42.4368159,19.26539361],[42.43680525,19.26517128],[42.4368038,19.26466307],[42.43680379,19.2644018],[42.43681052,19.26427424],[42.43681769,19.26394871],[42.43682071,19.26360129],[42.43680921,19.26348984],[42.43678034,19.26336907],[42.43669703,19.26312692],[42.43662142,19.2629312],[42.43659499,19.26279831],[42.43658044,19.26267213],[42.43658107,19.2623762],[42.43660696,19.26222764],[42.43678177,19.26187731],[42.43693276,19.26162563],[42.43699415,19.26152487],[42.437108,19.26129135],[42.43748884,19.26149547],[42.43822305,19.26189184],[42.43900589,19.26227324],[42.43945662,19.26072854],[42.43992851,19.2590989],[42.44022687,19.2580835],[42.44060616,19.25679865],[42.44092848,19.255727],[42.44124795,19.25466162],[42.44200532,19.25207747],[42.44265791,19.24985424],[42.44311404,19.24828853],[42.44184668,19.2476052],[42.44144421,19.24738586],[42.4410772,19.24718834],[42.44082645,19.24705922],[42.44049557,19.24690366],[42.44003275,19.24665615],[42.43938733,19.24631164],[42.43881931,19.24600805],[42.43860659,19.24589045],[42.43864475,19.24560401],[42.43891916,19.24352352],[42.43895283,19.24338488],[42.43900709,19.24331492],[42.43964717,19.24366118],[42.44039639,19.24406461],[42.44115281,19.24447188],[42.44140446,19.24461068],[42.44148972,19.24467928],[42.44153835,19.24473045],[42.44154767,19.24480832],[42.44158875,19.24490679],[42.44163626,19.24496636],[42.44171189,19.24500463],[42.44181278,19.2450007],[42.44188305,19.24495821],[42.44199093,19.24495823],[42.44206615,19.24497569],[42.44222019,19.2450567],[42.44379796,19.24586421],[42.4443018,19.24613248],[42.44535798,19.24670079],[42.44553224,19.24603043],[42.44590706,19.24622136],[42.44611032,19.24634397],[42.44635855,19.24649852],[42.44666738,19.24665212],[42.44673122,19.24666248],[42.44685524,19.24662068],[42.44691188,19.24659013],[42.44696198,19.24654066],[42.44701109,19.24647175],[42.4471586,19.24614385],[42.44729024,19.24587024],[42.44744723,19.24555011],[42.44757529,19.24530618],[42.44794257,19.24464948],[42.44813881,19.24429853],[42.4483419,19.2439369],[42.44848283,19.24367905],[42.44875009,19.24320579],[42.4490923,19.24261003],[42.44940984,19.24206488],[42.44972611,19.24151249],[42.44982296,19.24134618],[42.44989387,19.2412072],[42.44996223,19.24104736],[42.45002639,19.24087991],[42.45015291,19.24042994],[42.45022294,19.24019224],[42.45027245,19.24015447],[42.45030632,19.24016397],[42.45034503,19.24015655],[42.45039464,19.24011693],[42.45041323,19.24003219],[42.45040808,19.23997293],[42.45036843,19.23990917],[42.45032267,19.23987921],[42.45027206,19.23988869],[42.45023822,19.23991783],[42.4502123,19.23994696],[42.4501216,19.23994845],[42.45004079,19.23990702],[42.44982582,19.23978713],[42.44946623,19.23959059],[42.44874802,19.23919673],[42.44825362,19.23892913],[42.44767658,19.23862548],[42.44741937,19.2384881],[42.44699877,19.23827112],[42.44664842,19.23808684],[42.44695666,19.23709577],[42.44707859,19.23671281],[42.44734679,19.23586019],[42.44762462,19.23497316],[42.44788714,19.23412337],[42.44817376,19.23319466],[42.44844685,19.23229933],[42.44860525,19.23173021],[42.44870102,19.23132786],[42.44877416,19.23103683],[42.44884731,19.23081285],[42.4490431,19.23022411],[42.44944045,19.22901246],[42.44978726,19.22791299],[42.44991335,19.22751221],[42.45035664,19.22612636],[42.4504938,19.22569208],[42.45084285,19.22457976],[42.45104079,19.22394698],[42.45129274,19.2231336],[42.45156905,19.22223445],[42.45201436,19.22078141],[42.45226283,19.21998924],[42.45245159,19.21939024],[42.4525446,19.21919483],[42.45278304,19.21869067],[42.45305229,19.21810717],[42.45328787,19.21759626],[42.45376233,19.21661424],[42.45414528,19.21580478],[42.4545202,19.21500737],[42.45470975,19.21455008],[42.45484475,19.21398892],[42.45489421,19.21358168],[42.45486563,19.21362162],[42.4548603,19.21384799],[42.45478428,19.21426846],[42.45471133,19.21454824],[42.45460015,19.21481788],[42.45380644,19.21651546],[42.45343313,19.21728756],[42.45297646,19.21825884],[42.45269892,19.21886504],[42.45244563,19.21939927],[42.45220546,19.22017058],[42.45192562,19.22107575],[42.4514355,19.22266708],[42.45092315,19.22432837],[42.45058098,19.22539819],[42.45028269,19.22636121],[42.45000039,19.22724511],[42.4497064,19.22816602],[42.44940884,19.22911379],[42.44920339,19.22973162],[42.44902023,19.23029654],[42.44867778,19.2312777],[42.44857514,19.23155781],[42.44837965,19.23218897],[42.44811666,19.23301921],[42.44755336,19.23480911],[42.44672699,19.23749377],[42.44654871,19.23804373],[42.44678814,19.23815701],[42.4470391,19.23829208],[42.44747449,19.23852097],[42.44780356,19.23869093],[42.4481757,19.23888745],[42.4485403,19.23908196],[42.44963788,19.23968334],[42.44996921,19.23986295],[42.45013472,19.23994944],[42.45021557,19.23994682],[42.45026469,19.2398915],[42.45030346,19.23987826],[42.45033233,19.23988782],[42.45037087,19.23990541],[42.45040293,19.23994583],[42.45041459,19.24001269],[42.45040151,19.24009297],[42.45037696,19.24012936],[42.45034263,19.24015817],[42.4503023,19.24016563],[42.45026494,19.24016236],[42.4502219,19.24019553],[42.45016257,19.2404151],[42.45002898,19.24087704],[42.44988554,19.24122674],[42.44973997,19.24149081],[42.4491105,19.24257949],[42.44873243,19.24323751],[42.44835461,19.24391114],[42.44791297,19.24470363],[42.44753532,19.24537829],[42.44737913,19.24568081],[42.44722084,19.24601889],[42.44701038,19.24647369],[42.4469664,19.2465373],[42.4469244,19.24658079],[42.4468279,19.24662769],[42.44672916,19.24666248],[42.44667444,19.24665409],[42.44663457,19.24663498],[42.44650237,19.24657395],[42.44631821,19.2464745],[42.44590487,19.24622111],[42.44553067,19.24602732],[42.44539608,19.24656503],[42.44499014,19.24635632],[42.44338245,19.24552365],[42.44269703,19.24516494],[42.44218506,19.24489453],[42.44210166,19.24484055],[42.44203114,19.24476645],[42.44195984,19.24465971],[42.44194991,19.24460393],[42.44191528,19.24452943],[42.44187927,19.24448488],[42.44180935,19.24444008],[42.44174771,19.24442325],[42.44167594,19.24444672],[42.44162587,19.2444849],[42.44157962,19.24454187],[42.44148615,19.24451365],[42.4407446,19.24411274],[42.43968411,19.2435541],[42.43931654,19.24335901],[42.43896727,19.24314932],[42.43895223,19.24326152],[42.43895002,19.24338182],[42.43892494,19.24349551],[42.4388518,19.24404934],[42.43873093,19.24495711],[42.43860518,19.24589101],[42.43902613,19.24611675],[42.44005335,19.24666919],[42.44051145,19.24691206],[42.44074224,19.24701843],[42.44097303,19.24713418],[42.44131148,19.24731811],[42.44168023,19.24751594],[42.44246829,19.24794123],[42.44300184,19.24822769],[42.44276106,19.2490502],[42.44254774,19.24978865],[42.44224266,19.25084973],[42.44193729,19.2518944],[42.44160658,19.25302263],[42.44120191,19.25440925],[42.44093295,19.25534766],[42.44067932,19.25624974],[42.44042236,19.25713279],[42.44000486,19.25856098],[42.43938809,19.26066578],[42.43893708,19.26223507],[42.43864725,19.26209544],[42.43796737,19.26175141],[42.43710409,19.26128997],[42.43699792,19.26152028],[42.43691137,19.26166348],[42.43671232,19.26201783],[42.43661239,19.26221816],[42.43658153,19.26237123],[42.43657974,19.26255025],[42.43658673,19.26273793],[42.43661741,19.26292598],[42.43668664,19.26309712],[42.43678002,19.2633695],[42.43680913,19.26348767],[42.43682043,19.26360316],[42.43682077,19.26387743],[42.43681268,19.26414161],[42.43680565,19.2646533],[42.43680804,19.26507498],[42.43681218,19.26530839],[42.43681623,19.26539291],[42.43683315,19.26554449],[42.43687891,19.26574476],[42.43693091,19.26593895],[42.43698983,19.26613045],[42.43707013,19.26630049],[42.43711628,19.26638237],[42.43724789,19.26655045],[42.43745012,19.26680718],[42.43757028,19.26693882],[42.43728982,19.26792401],[42.43724993,19.26813482],[42.43723577,19.26828797],[42.43723111,19.26852763],[42.43723619,19.26870344],[42.43728578,19.26905692],[42.43732914,19.2694051],[42.43734229,19.2695778],[42.43732786,19.26996224],[42.43730304,19.27008853],[42.43728911,19.27019873],[42.4373002,19.27027725],[42.437246,19.2704262],[42.43714682,19.27069397],[42.43675365,19.27175236],[42.4362575,19.27314196],[42.43597797,19.27393745],[42.43583908,19.27433839],[42.43564613,19.27471198],[42.43559393,19.27478906],[42.43554037,19.27484006],[42.43546829,19.27486697],[42.43539729,19.27494824],[42.43537142,19.27500919],[42.43535749,19.27507922],[42.4353599,19.27515194],[42.43536905,19.27520346],[42.43538514,19.27526034],[42.43544352,19.27534121],[42.43548921,19.2753715],[42.43556361,19.27539643],[42.43571279,19.27533688],[42.43583769,19.27535886],[42.43712326,19.27608047],[42.43728235,19.27615661],[42.43723537,19.27667448],[42.43721188,19.27693342],[42.43719696,19.27719657],[42.4371724,19.27756118],[42.437162,19.27773923],[42.43715614,19.27784131],[42.43712681,19.27798166],[42.43716717,19.27799247],[42.43721811,19.27801467],[42.43727697,19.27805565],[42.43739753,19.27814912],[42.43750739,19.27825006],[42.43759001,19.27832664],[42.43766273,19.27840993],[42.43775774,19.27853435],[42.43781364,19.27863263],[42.43785719,19.27871026],[42.4379259,19.27884009],[42.43800109,19.27903854],[42.43805383,19.27920834],[42.43808728,19.2793607],[42.43810599,19.27949187],[42.43811183,19.27957811],[42.43813245,19.27989865],[42.43815103,19.28021863],[42.43819492,19.28107288],[42.43821548,19.28152158],[42.43823291,19.28164683],[42.4382543,19.28175196],[42.43829304,19.28185426],[42.4383387,19.28195387],[42.43846785,19.28220949],[42.4386059,19.28246243],[42.43935406,19.28382343],[42.43951808,19.28414412],[42.43953757,19.28418208],[42.43955919,19.2842708],[42.43956696,19.28434812],[42.439563,19.28443648],[42.43955113,19.28451948],[42.43949735,19.28463817],[42.43921022,19.28526893],[42.43893101,19.28584539],[42.43885188,19.28595919],[42.43876583,19.2860502],[42.43858048,19.28624883],[42.43840092,19.28644396],[42.43797056,19.28691473],[42.43754119,19.28737879],[42.43692909,19.28804878],[42.43668659,19.28831288],[42.43655157,19.28845909],[42.43646752,19.28856753],[42.43641963,19.28865347],[42.43637322,19.28875617],[42.43633588,19.28886727],[42.4362999,19.2890169],[42.43624894,19.28942346],[42.43615161,19.29046601],[42.43605414,19.29150262],[42.43587373,19.29310608],[42.43585846,19.29321238],[42.43583824,19.29328918],[42.43578292,19.29337263],[42.43552261,19.29358028],[42.43524267,19.29379307],[42.43454717,19.29433909],[42.43413866,19.29465785],[42.43380836,19.29492132],[42.43345431,19.29520678],[42.43305766,19.29547012],[42.43291023,19.29556221],[42.43254272,19.29577787],[42.43207509,19.29604083],[42.43162399,19.29633148],[42.43117808,19.29666076],[42.43072447,19.29700451],[42.43029198,19.29732971],[42.42940579,19.2979805],[42.42880656,19.29844201],[42.42813123,19.29896585],[42.42744098,19.299514],[42.42718904,19.29969945],[42.42704769,19.29980786],[42.42667056,19.30009186],[42.42570493,19.30081293],[42.42534687,19.30108299],[42.42494078,19.30155223],[42.42439985,19.30211008]]}},{"type":"Feature","properties":{"name":"Konik (okreti\u0161te)","id":1754,"type":"bus-stop","line_id":107},"geometry":{"type":"Point","coordinates":[19.30209073,42.42439818]}},{"type":"Feature","properties":{"name":"\u0160panskih boraca I (A)","id":1755,"type":"bus-stop","line_id":107},"geometry":{"type":"Point","coordinates":[19.30042516,42.42637572]}},{"type":"Feature","properties":{"name":"\u0160panskih boraca II (A)","id":1756,"type":"bus-stop","line_id":107},"geometry":{"type":"Point","coordinates":[19.29797899,42.42968596]}},{"type":"Feature","properties":{"name":"Vrela ribni\u010dka (A)","id":1757,"type":"bus-stop","line_id":107},"geometry":{"type":"Point","coordinates":[19.29425424,42.43476385]}},{"type":"Feature","properties":{"name":"Office centar (A)","id":1758,"type":"bus-stop","line_id":107},"geometry":{"type":"Point","coordinates":[19.29309192,42.43592621]}},{"type":"Feature","properties":{"name":"Ul. Bra\u0107e Ribara I (A)","id":1759,"type":"bus-stop","line_id":107},"geometry":{"type":"Point","coordinates":[19.28652059,42.43851504]}},{"type":"Feature","properties":{"name":"O.\u0160 Marko Miljanov (A)","id":1614,"type":"bus-stop","line_id":107},"geometry":{"type":"Point","coordinates":[19.28224504,42.43856172]}},{"type":"Feature","properties":{"name":"Minizaobilaznica bijele zgrade (A)","id":1760,"type":"bus-stop","line_id":107},"geometry":{"type":"Point","coordinates":[19.27763164,42.43718004]}},{"type":"Feature","properties":{"name":"V Proleterske brigade (A)","id":1613,"type":"bus-stop","line_id":107},"geometry":{"type":"Point","coordinates":[19.269349,42.437458]}},{"type":"Feature","properties":{"name":"\u0106ukovica brijeg (A)","id":1612,"type":"bus-stop","line_id":107},"geometry":{"type":"Point","coordinates":[19.26580177,42.43692112]}},{"type":"Feature","properties":{"name":"Most Bra\u0107e Zlati\u010danin (A)","id":1464,"type":"bus-stop","line_id":107},"geometry":{"type":"Point","coordinates":[19.26152229,42.43739778]}},{"type":"Feature","properties":{"name":"Bulevar Svetog Petra Cetinjskog I (A)","id":1493,"type":"bus-stop","line_id":107},"geometry":{"type":"Point","coordinates":[19.250911,42.44239]}},{"type":"Feature","properties":{"name":"Zgrada Vektre (A)","id":1494,"type":"bus-stop","line_id":107},"geometry":{"type":"Point","coordinates":[19.247515,42.441781]}},{"type":"Feature","properties":{"name":"KBC (A)","id":1495,"type":"bus-stop","line_id":107},"geometry":{"type":"Point","coordinates":[19.245366,42.438717]}},{"type":"Feature","properties":{"name":"Capital Plaza I (A)","id":1496,"type":"bus-stop","line_id":107},"geometry":{"type":"Point","coordinates":[19.244021,42.440194]}},{"type":"Feature","properties":{"name":"Blok 5 - benz. pumpa (A)","id":1711,"type":"bus-stop","line_id":107},"geometry":{"type":"Point","coordinates":[19.245639,42.447434]}},{"type":"Feature","properties":{"name":"Blok V (\u017euta zgrada) (A)","id":1761,"type":"bus-stop","line_id":107},"geometry":{"type":"Point","coordinates":[19.24313307,42.44874331]}},{"type":"Feature","properties":{"name":"Blok 5 - zadnja zgrada (A)","id":1712,"type":"bus-stop","line_id":107},"geometry":{"type":"Point","coordinates":[19.240775,42.450118]}},{"type":"Feature","properties":{"name":"Blok VI (ispred Tolo\u0161ke \u0161ume) (A)","id":1762,"type":"bus-stop","line_id":107},"geometry":{"type":"Point","coordinates":[19.23780355,42.44677918]}},{"type":"Feature","properties":{"name":"Tolo\u0161i I (A)","id":1763,"type":"bus-stop","line_id":107},"geometry":{"type":"Point","coordinates":[19.23209321,42.44851455]}},{"type":"Feature","properties":{"name":"Tolo\u0161i II (A)","id":1764,"type":"bus-stop","line_id":107},"geometry":{"type":"Point","coordinates":[19.2275843,42.44989616]}},{"type":"Feature","properties":{"name":"Elastik (A)","id":1765,"type":"bus-stop","line_id":107},"geometry":{"type":"Point","coordinates":[19.21934055,42.45248934]}},{"type":"Feature","properties":{"name":"Tolo\u0161ko groblje (A)","id":1766,"type":"bus-stop","line_id":107},"geometry":{"type":"Point","coordinates":[19.21576917,42.45412241]}},{"type":"Feature","properties":{"name":"Tolo\u0161ko groblje (B)","id":1767,"type":"bus-stop","line_id":107},"geometry":{"type":"Point","coordinates":[19.2159462,42.45404326]}},{"type":"Feature","properties":{"name":"Elastik (B)","id":1768,"type":"bus-stop","line_id":107},"geometry":{"type":"Point","coordinates":[19.22005835,42.45217934]}},{"type":"Feature","properties":{"name":"Tolo\u0161i II (B)","id":1769,"type":"bus-stop","line_id":107},"geometry":{"type":"Point","coordinates":[19.22794911,42.44968262]}},{"type":"Feature","properties":{"name":"Tolo\u0161i I (B)","id":1770,"type":"bus-stop","line_id":107},"geometry":{"type":"Point","coordinates":[19.23288168,42.44812047]}},{"type":"Feature","properties":{"name":"Me\u0161e Selimovi\u0107 (B)","id":1771,"type":"bus-stop","line_id":107},"geometry":{"type":"Point","coordinates":[19.23869675,42.44761757]}},{"type":"Feature","properties":{"name":"Blok 5 - zadnja zgrada (B)","id":1714,"type":"bus-stop","line_id":107},"geometry":{"type":"Point","coordinates":[19.241153,42.449861]}},{"type":"Feature","properties":{"name":"Blok V (\u017euta zgrada) (B)","id":1772,"type":"bus-stop","line_id":107},"geometry":{"type":"Point","coordinates":[19.24320817,42.44870769]}},{"type":"Feature","properties":{"name":"Blok 5 - benz. pumpa (B)","id":1715,"type":"bus-stop","line_id":107},"geometry":{"type":"Point","coordinates":[19.245724,42.447257]}},{"type":"Feature","properties":{"name":"Zgrada Vektre (B)","id":1510,"type":"bus-stop","line_id":107},"geometry":{"type":"Point","coordinates":[19.247621,42.4417]}},{"type":"Feature","properties":{"name":"Bulevar Svetog Petra Cetinjskog II (B)","id":1604,"type":"bus-stop","line_id":107},"geometry":{"type":"Point","coordinates":[19.249951,42.442445]}},{"type":"Feature","properties":{"name":"Bulevar Svetog Petra Cetinjskog I (B)","id":1511,"type":"bus-stop","line_id":107},"geometry":{"type":"Point","coordinates":[19.252771,42.441624]}},{"type":"Feature","properties":{"name":"Most Bra\u0107e Zlati\u010danin (B)","id":1489,"type":"bus-stop","line_id":107},"geometry":{"type":"Point","coordinates":[19.26202118,42.43868445]}},{"type":"Feature","properties":{"name":"Trg Bo\u017eane Vu\u010dini\u0107","id":1773,"type":"bus-stop","line_id":107},"geometry":{"type":"Point","coordinates":[19.26256835,42.43649908]}},{"type":"Feature","properties":{"name":"\u0106ukovica brijeg (B)","id":1774,"type":"bus-stop","line_id":107},"geometry":{"type":"Point","coordinates":[19.26601413,42.43692527]}},{"type":"Feature","properties":{"name":"V Proleterske brigade (B)","id":1718,"type":"bus-stop","line_id":107},"geometry":{"type":"Point","coordinates":[19.269658,42.4373]}},{"type":"Feature","properties":{"name":"Bulevar Peka Dap\u010devi\u0107a (B)","id":1775,"type":"bus-stop","line_id":107},"geometry":{"type":"Point","coordinates":[19.27572316,42.4363982]}},{"type":"Feature","properties":{"name":"Minizaobilaznica bijele zgrade (B)","id":1776,"type":"bus-stop","line_id":107},"geometry":{"type":"Point","coordinates":[19.27736174,42.43712763]}},{"type":"Feature","properties":{"name":"O.\u0160 Marko Miljanov (B)","id":1777,"type":"bus-stop","line_id":107},"geometry":{"type":"Point","coordinates":[19.28249381,42.43850234]}},{"type":"Feature","properties":{"name":"Ul. Bra\u0107e Ribar I (B)","id":1615,"type":"bus-stop","line_id":107},"geometry":{"type":"Point","coordinates":[19.28670293,42.43810884]}},{"type":"Feature","properties":{"name":"Office centar (B)","id":1778,"type":"bus-stop","line_id":107},"geometry":{"type":"Point","coordinates":[19.29180985,42.43593136]}},{"type":"Feature","properties":{"name":"Vrela ribni\u010dka (B)","id":1616,"type":"bus-stop","line_id":107},"geometry":{"type":"Point","coordinates":[19.2943961,42.43434813]}},{"type":"Feature","properties":{"name":"\u0160panskih boraca III (B)","id":1779,"type":"bus-stop","line_id":107},"geometry":{"type":"Point","coordinates":[19.29615503,42.43183277]}},{"type":"Feature","properties":{"name":"\u0160panskih boraca II (B)","id":1780,"type":"bus-stop","line_id":107},"geometry":{"type":"Point","coordinates":[19.29808628,42.4292029]}},{"type":"Feature","properties":{"name":"\u0160panskih boraca I (B)","id":1781,"type":"bus-stop","line_id":107},"geometry":{"type":"Point","coordinates":[19.2995299,42.42723982]}}]}