{"type":"FeatureCollection","features":[{"type":"Feature","properties":{"name":"Masline (Burum) - Zabjelo","type":"bus-line","id":116},"geometry":{"type":"LineString","coordinates":[[42.45185974,19.31494594],[42.45208007,19.3145293],[42.4523136,19.31393385],[42.45247874,19.31347191],[42.45262629,19.31299925],[42.45272062,19.31275427],[42.45282771,19.31252539],[42.4529724,19.31230485],[42.4531615,19.31207895],[42.45326111,19.31192696],[42.45333104,19.31176364],[42.45335237,19.3116498],[42.45334533,19.31153119],[42.45329014,19.31134462],[42.45310477,19.3110466],[42.45255196,19.30959463],[42.45249435,19.30933297],[42.45246181,19.30906594],[42.45246708,19.30656493],[42.45242596,19.30591255],[42.45235318,19.30542827],[42.45220475,19.30489004],[42.45205764,19.30442095],[42.45202356,19.30424154],[42.45202752,19.30409968],[42.45204357,19.3039602],[42.4522186,19.30327892],[42.45225379,19.30296302],[42.45224235,19.30274129],[42.45221465,19.30253714],[42.45214648,19.30231094],[42.45186919,19.30161208],[42.45169767,19.30120677],[42.45157519,19.30093884],[42.45145315,19.3006441],[42.45124249,19.30004299],[42.45091858,19.29911554],[42.45065382,19.29836512],[42.45054541,19.29803431],[42.45045459,19.29766893],[42.45013486,19.29621398],[42.45003942,19.29572195],[42.4499939,19.29533541],[42.44996553,19.29497242],[42.44994926,19.29460764],[42.44991364,19.29417312],[42.44989956,19.29383516],[42.45005899,19.2936337],[42.45054211,19.29263234],[42.45100632,19.29206043],[42.45145425,19.29146349],[42.45168888,19.29109931],[42.45198816,19.29056644],[42.45222058,19.29012477],[42.45244773,19.28958654],[42.45072441,19.28791046],[42.44988351,19.28709775],[42.4490006,19.28622007],[42.44956971,19.28513885],[42.44769039,19.28346276],[42.44680591,19.2826736],[42.44598255,19.28193748],[42.44580046,19.28225696],[42.44524605,19.28125769],[42.44434152,19.27982032],[42.44390673,19.27908778],[42.44346073,19.27836329],[42.44330612,19.27812248],[42.4431359,19.27779675],[42.44305035,19.27760243],[42.44292455,19.27729845],[42.44279392,19.27706212],[42.442285,19.27649707],[42.44215371,19.27628011],[42.4420345,19.27605838],[42.44197446,19.27584201],[42.44187242,19.27536815],[42.44146357,19.27340448],[42.44140748,19.27312016],[42.4413646,19.27283585],[42.44134414,19.27267283],[42.44133557,19.27249581],[42.44137207,19.27201867],[42.44138549,19.2717281],[42.44141496,19.27143812],[42.44152691,19.27082956],[42.44236176,19.26797509],[42.44304309,19.26567972],[42.44331052,19.26476657],[42.44339057,19.2644918],[42.44428874,19.26145852],[42.44507957,19.25879836],[42.44565268,19.25685942],[42.44582025,19.25625741],[42.44586336,19.2559737],[42.44635817,19.25429404],[42.4472818,19.25114453],[42.4473381,19.2509222],[42.44736734,19.25078422],[42.44744497,19.25077736],[42.44753997,19.25068617],[42.44754613,19.25054729],[42.4474806,19.25042927],[42.44735261,19.25044119],[42.44726641,19.25041318],[42.44666341,19.25008714],[42.44633639,19.25000161],[42.44534347,19.24947977],[42.44315789,19.24830139],[42.4410932,19.24720883],[42.44072327,19.24700618],[42.44021038,19.24673975],[42.43941487,19.24631357],[42.43877727,19.24597353],[42.43870491,19.245933],[42.43862001,19.24589932],[42.43901128,19.24318194],[42.43856832,19.24294055],[42.43812756,19.24273431],[42.43754295,19.24254477],[42.4370683,19.24246311],[42.43662709,19.24243748],[42.43638998,19.24245477],[42.43599099,19.24251735],[42.4355843,19.24259752],[42.43537821,19.24267352],[42.434666,19.24285471],[42.43367927,19.24309909],[42.43170357,19.24359024],[42.43089409,19.24378961],[42.43006173,19.2440021],[42.42926564,19.24420089],[42.4284392,19.24441755],[42.42807579,19.24450636],[42.42774209,19.2446211],[42.42742553,19.24480021],[42.42704233,19.24512088],[42.42681047,19.24540281],[42.42665648,19.24565822],[42.42649545,19.24589038],[42.4263188,19.2463842],[42.42619385,19.24682081],[42.42595121,19.24770355],[42.42576994,19.24831837],[42.42556909,19.24891949],[42.42522481,19.25006211],[42.42457188,19.2522037],[42.42338348,19.25152719],[42.42221442,19.25090194],[42.42187562,19.25067902],[42.42184427,19.2504935],[42.42119574,19.24950214],[42.42099235,19.24899195],[42.42092806,19.24876513],[42.42086378,19.24860939],[42.42078896,19.24848176],[42.42031274,19.24796907],[42.4191699,19.24685122],[42.45183621,19.31493044],[42.45196133,19.31469172],[42.4520362,19.31455016],[42.45209876,19.31439668],[42.45236527,19.31371331],[42.45242607,19.31353986],[42.45253679,19.313173],[42.45265971,19.31282982],[42.4527116,19.31270689],[42.45274679,19.3126215],[42.45280572,19.31250006],[42.45295381,19.31226924],[42.45315545,19.31203172],[42.45322329,19.31192145],[42.4532853,19.3118009],[42.45331509,19.31169465],[42.4533251,19.31159511],[42.45330157,19.31148469],[42.45327892,19.31141406],[42.45324616,19.31134313],[42.45311697,19.31113452],[42.45304386,19.31097895],[42.45296382,19.3107608],[42.45252272,19.30959761],[42.45246291,19.3093273],[42.4524297,19.30907667],[42.45244026,19.30658609],[42.45239364,19.30590183],[42.45232646,19.30545211],[42.4522705,19.30524826],[42.45215495,19.30483446],[42.45202653,19.30442467],[42.45199849,19.30429637],[42.45199101,19.30415183],[42.45200509,19.30401027],[42.45203807,19.30385172],[42.45219881,19.30322409],[42.45221904,19.30298507],[42.45221366,19.30276498],[42.45218826,19.30255115],[42.45212559,19.30233955],[42.45184984,19.3016538],[42.45166777,19.30121779],[42.45154221,19.30094212],[42.45141841,19.30063456],[42.45130736,19.30032194],[42.45088384,19.2991218],[42.45067064,19.29851174],[42.45052342,19.29805428],[42.45042381,19.29764956],[42.45026515,19.2969507],[42.45011089,19.29623544],[42.4500071,19.29571643],[42.44997994,19.29546565],[42.44993959,19.29501563],[42.44992056,19.29457948],[42.44988725,19.29419696],[42.44986636,19.2937991],[42.44996641,19.29370612],[42.45006141,19.29357201],[42.45026746,19.29313719],[42.45051265,19.29263264],[42.45060039,19.29251283],[42.45103535,19.29196954],[42.45146656,19.29139674],[42.45174099,19.29094046],[42.45202752,19.2904374],[42.45221399,19.29005384],[42.45241343,19.28959727],[42.45182983,19.28901106],[42.45067009,19.28791285],[42.44970979,19.28697824],[42.44897267,19.28622484],[42.44953453,19.28515285],[42.44767808,19.28349316],[42.44679579,19.28271294],[42.44599443,19.28199053],[42.44580222,19.28232759],[42.4454387,19.28166837],[42.44506308,19.2810306],[42.44431887,19.27984774],[42.4438788,19.27910417],[42.44342202,19.27836746],[42.44320628,19.27801579],[42.44305123,19.27767217],[42.44291246,19.27739322],[42.442733,19.27708447],[42.44238067,19.27672237],[42.44213303,19.27635998],[42.44200943,19.27614242],[42.44193576,19.27593529],[42.44181831,19.27538306],[42.4414143,19.27345723],[42.44132721,19.27297801],[42.44127332,19.27252084],[42.44123264,19.27199811],[42.44125155,19.27148074],[42.44131687,19.27102327],[42.44142486,19.2705518],[42.44243082,19.26717162],[42.44350098,19.26350772],[42.44460741,19.25982684],[42.44475937,19.25929457],[42.44494586,19.25879434],[42.44572635,19.25615609],[42.4458075,19.2559889],[42.44595132,19.25550878],[42.44630539,19.25425828],[42.44691894,19.25218463],[42.44715557,19.25139308],[42.44724046,19.25110817],[42.44733546,19.25077856],[42.44729763,19.2506665],[42.4472365,19.25057828],[42.44709092,19.25050974],[42.44694533,19.25043404],[42.4464358,19.2501539],[42.44632694,19.25003052],[42.44533688,19.24951553],[42.4431491,19.24834311],[42.44115698,19.24727738],[42.44087283,19.24713135],[42.44052115,19.24693227],[42.44017519,19.24676359],[42.43886348,19.24605489],[42.43872184,19.24598306],[42.43859032,19.24593508],[42.43896246,19.24336731],[42.43854501,19.24314231],[42.43814427,19.2429477],[42.43759617,19.24275666],[42.43727813,19.2426914],[42.43696163,19.24264371],[42.43661829,19.24261928],[42.43601431,19.24265087],[42.43559662,19.24266875],[42.43539537,19.24275458],[42.4351389,19.24280465],[42.43451423,19.24296021],[42.43334361,19.24324989],[42.43158127,19.24369931],[42.43003357,19.24408913],[42.42924915,19.24428105],[42.42855138,19.24446821],[42.42808459,19.24458802],[42.42779422,19.24468189],[42.42756126,19.2448017],[42.42739694,19.24491644],[42.42709996,19.24516171],[42.42688042,19.24543232],[42.42656804,19.24590349],[42.42637578,19.24640864],[42.4260106,19.24771279],[42.42585199,19.24829155],[42.42565642,19.24885988],[42.42461478,19.25226837],[42.42335356,19.25155371],[42.42218538,19.25092578],[42.4218699,19.25072283],[42.42183888,19.25054342],[42.42158841,19.25019294],[42.42120254,19.24952395],[42.42108514,19.24925759],[42.42098075,19.24895948],[42.42092723,19.24876204],[42.42084735,19.2485753],[42.42074027,19.24843302],[42.41988247,19.24752813],[42.41918423,19.24687765]]}},{"type":"Feature","properties":{"name":"Burum (okretište)","id":1472,"type":"bus-stop","line_id":116},"geometry":{"type":"Point","coordinates":[42.4518505,19.31452274]}},{"type":"Feature","properties":{"name":"Doljanska I (A)","id":1471,"type":"bus-stop","line_id":116},"geometry":{"type":"Point","coordinates":[42.45102721,19.30010319]}},{"type":"Feature","properties":{"name":"Doljanska II (A)","id":1880,"type":"bus-stop","line_id":116},"geometry":{"type":"Point","coordinates":[42.45230172,19.30630445]}},{"type":"Feature","properties":{"name":"Doljanska III (A)","id":1881,"type":"bus-stop","line_id":116},"geometry":{"type":"Point","coordinates":[42.45291127,19.31093261]}},{"type":"Feature","properties":{"name":"Franca Rozmana  (A)","id":1882,"type":"bus-stop","line_id":116},"geometry":{"type":"Point","coordinates":[42.4513059,19.29176694]}},{"type":"Feature","properties":{"name":"Sarajevska I (A)","id":1883,"type":"bus-stop","line_id":116},"geometry":{"type":"Point","coordinates":[42.44917476,19.28667873]}},{"type":"Feature","properties":{"name":"Sarajevska II (A)","id":1884,"type":"bus-stop","line_id":116},"geometry":{"type":"Point","coordinates":[42.45128053,19.28867698]}},{"type":"Feature","properties":{"name":"Novosadska I","id":1885,"type":"bus-stop","line_id":116},"geometry":{"type":"Point","coordinates":[42.44755185,19.28335749]}},{"type":"Feature","properties":{"name":"Novosadska II","id":1886,"type":"bus-stop","line_id":116},"geometry":{"type":"Point","coordinates":[42.44922226,19.28478241]}},{"type":"Feature","properties":{"name":"Komska","id":1887,"type":"bus-stop","line_id":116},"geometry":{"type":"Point","coordinates":[42.44585764,19.2821468]}},{"type":"Feature","properties":{"name":"Skopska I (A)","id":1468,"type":"bus-stop","line_id":116},"geometry":{"type":"Point","coordinates":[42.44593681,19.28253472]}},{"type":"Feature","properties":{"name":"Bulevar Ivana Crnojevića I (A)","id":1466,"type":"bus-stop","line_id":116},"geometry":{"type":"Point","coordinates":[42.44181787,19.26923499]}},{"type":"Feature","properties":{"name":"Bulevar Ivana Crnojevića II (A)","id":1467,"type":"bus-stop","line_id":116},"geometry":{"type":"Point","coordinates":[42.44252253,19.26684782]}},{"type":"Feature","properties":{"name":"Gradski stadion (A)","id":1667,"type":"bus-stop","line_id":116},"geometry":{"type":"Point","coordinates":[42.443615,19.263746]}},{"type":"Feature","properties":{"name":"Ul. 13. jula (A)","id":1694,"type":"bus-stop","line_id":116},"geometry":{"type":"Point","coordinates":[42.446077,19.255482]}},{"type":"Feature","properties":{"name":"Mala pijaca (A)","id":1722,"type":"bus-stop","line_id":116},"geometry":{"type":"Point","coordinates":[42.44609911,19.24990833]}},{"type":"Feature","properties":{"name":"Zgrada Vektre (A)","id":1494,"type":"bus-stop","line_id":116},"geometry":{"type":"Point","coordinates":[42.441781,19.247515]}},{"type":"Feature","properties":{"name":"Ul. Ljubljanska (A)","id":1675,"type":"bus-stop","line_id":116},"geometry":{"type":"Point","coordinates":[42.436883,19.249407]}},{"type":"Feature","properties":{"name":"Vojvode Ilije Plamenca I (A)","id":1571,"type":"bus-stop","line_id":116},"geometry":{"type":"Point","coordinates":[42.42996428,19.2440021]}},{"type":"Feature","properties":{"name":"27. marta I (A)","id":1888,"type":"bus-stop","line_id":116},"geometry":{"type":"Point","coordinates":[42.42670751,19.24544513]}},{"type":"Feature","properties":{"name":"27. Marta II (A)","id":1889,"type":"bus-stop","line_id":116},"geometry":{"type":"Point","coordinates":[42.42349612,19.25573945]}},{"type":"Feature","properties":{"name":"Soliteri Zabjelo (A)","id":1572,"type":"bus-stop","line_id":116},"geometry":{"type":"Point","coordinates":[42.42391586,19.25186634]}},{"type":"Feature","properties":{"name":"Dušana Milutinovića (A)","id":1696,"type":"bus-stop","line_id":116},"geometry":{"type":"Point","coordinates":[42.41915079,19.24692574]}},{"type":"Feature","properties":{"name":"27. marta (A)","id":1695,"type":"bus-stop","line_id":116},"geometry":{"type":"Point","coordinates":[42.42476723,19.25138019]}},{"type":"Feature","properties":{"name":"Dušana Milutinovića (B)","id":1703,"type":"bus-stop","line_id":116},"geometry":{"type":"Point","coordinates":[42.41937389,19.24700748]}},{"type":"Feature","properties":{"name":"Soliteri Zabjelo (B)","id":1583,"type":"bus-stop","line_id":116},"geometry":{"type":"Point","coordinates":[42.42382875,19.25181806]}},{"type":"Feature","properties":{"name":"27. marta 1 (B)","id":1890,"type":"bus-stop","line_id":116},"geometry":{"type":"Point","coordinates":[42.42657684,19.24616396]}},{"type":"Feature","properties":{"name":"27. marta II (B)","id":1704,"type":"bus-stop","line_id":116},"geometry":{"type":"Point","coordinates":[42.42357135,19.25549805]}},{"type":"Feature","properties":{"name":"Vojvode Ilije Plamenca I (B)","id":1584,"type":"bus-stop","line_id":116},"geometry":{"type":"Point","coordinates":[42.4299425,19.2441389]}},{"type":"Feature","properties":{"name":"Ul. Ljubljanska (B)","id":1684,"type":"bus-stop","line_id":116},"geometry":{"type":"Point","coordinates":[42.43676,19.24973]}},{"type":"Feature","properties":{"name":"Zgrada Vektre (B)","id":1510,"type":"bus-stop","line_id":116},"geometry":{"type":"Point","coordinates":[42.4417,19.247621]}},{"type":"Feature","properties":{"name":"Mala pijaca (B)","id":1699,"type":"bus-stop","line_id":116},"geometry":{"type":"Point","coordinates":[42.44507385,19.24936652]}},{"type":"Feature","properties":{"name":"Ul. 13. jula (B)","id":1700,"type":"bus-stop","line_id":116},"geometry":{"type":"Point","coordinates":[42.446057,19.254951]}},{"type":"Feature","properties":{"name":"Gradski stadion (B)","id":1657,"type":"bus-stop","line_id":116},"geometry":{"type":"Point","coordinates":[42.443523,19.26345]}},{"type":"Feature","properties":{"name":"Bulevar Ivana Crnojevića I (B)","id":1487,"type":"bus-stop","line_id":116},"geometry":{"type":"Point","coordinates":[42.44159025,19.27050233]}},{"type":"Feature","properties":{"name":"Bulevar Ivana Crnojevića II (B)","id":1486,"type":"bus-stop","line_id":116},"geometry":{"type":"Point","coordinates":[42.44258586,19.26729709]}},{"type":"Feature","properties":{"name":"Skopska I (B)","id":1485,"type":"bus-stop","line_id":116},"geometry":{"type":"Point","coordinates":[42.4456518,19.28203046]}},{"type":"Feature","properties":{"name":"Sarajevska I (B)","id":1891,"type":"bus-stop","line_id":116},"geometry":{"type":"Point","coordinates":[42.44919851,19.28631663]}},{"type":"Feature","properties":{"name":"Sarajevska II (B)","id":1892,"type":"bus-stop","line_id":116},"geometry":{"type":"Point","coordinates":[42.45143094,19.28847313]}},{"type":"Feature","properties":{"name":"Franca Rozmana  (B)","id":1893,"type":"bus-stop","line_id":116},"geometry":{"type":"Point","coordinates":[42.45131778,19.29150945]}},{"type":"Feature","properties":{"name":"Doljanska I (B)","id":1482,"type":"bus-stop","line_id":116},"geometry":{"type":"Point","coordinates":[42.45123303,19.30007637]}},{"type":"Feature","properties":{"name":"Doljanska II (B)","id":1894,"type":"bus-stop","line_id":116},"geometry":{"type":"Point","coordinates":[42.45253129,19.30619717]}},{"type":"Feature","properties":{"name":"Doljanska III (B)","id":1895,"type":"bus-stop","line_id":116},"geometry":{"type":"Point","coordinates":[42.45306959,19.31072474]}},{"type":"Feature","properties":{"name":"27. marta (B)","id":1698,"type":"bus-stop","line_id":116},"geometry":{"type":"Point","coordinates":[42.42550458,19.24938094]}}]}