{"type":"FeatureCollection","features":[{"type":"Feature","properties":{"name":"Podgorica - Donja gorica","type":"bus-line","id":92},"geometry":{"type":"LineString","coordinates":[[19.2678,42.43285],[19.2676,42.43291],[19.2678,42.43324],[19.26782,42.43329],[19.26782,42.43337],[19.26777393,42.43345612],[19.26481679,42.43434695],[19.26260173,42.43498196],[19.26048249,42.43559926],[19.26103085,42.43661763],[19.26224,42.43893],[19.26228702,42.43900567],[19.26069796,42.43947579],[19.25899744,42.43999331],[19.25628096,42.44077628],[19.25512612,42.44112333],[19.25467819,42.44127948],[19.25041407,42.44252055],[19.24886435,42.44297865],[19.24829587,42.44313568],[19.24825042,42.44305552],[19.24793214,42.44244918],[19.24718469,42.44104668],[19.24701825,42.44073614],[19.24668968,42.44011295],[19.24629495,42.43937297],[19.24612463,42.4390578],[19.2459999,42.43883115],[19.24593732,42.43871095],[19.24590155,42.43861572],[19.24337387,42.43898258],[19.24460739,42.44134755],[19.24477,42.44153],[19.24491,42.44157],[19.24501,42.44167],[19.24503,42.44178],[19.24499,42.44185],[19.24489,42.44194],[19.24475,42.44197],[19.24461,42.44196],[19.24451,42.44191],[19.24445,42.44183],[19.24441502,42.44173969],[19.2442742,42.44163522],[19.24399227,42.44152449],[19.24267262,42.44100347],[19.24020469,42.44003707],[19.23746943,42.43896619],[19.2373,42.43895],[19.23713,42.43894],[19.23705,42.43889],[19.23701,42.43883],[19.23695445,42.43876297],[19.23676968,42.43869545],[19.22844917,42.43542462],[19.22780335,42.43515804],[19.22706813,42.434871],[19.22590435,42.43440755],[19.22533631,42.43414822],[19.22481477,42.4338592],[19.22466338,42.43375054],[19.22447711,42.43359239],[19.22433287,42.43344721],[19.22404021,42.4331804],[19.22365129,42.43275302],[19.22334671,42.43224534],[19.22323376,42.43198183],[19.22314554,42.43169499],[19.22307104,42.43118643],[19.22307402,42.43079533],[19.22312558,42.43041082],[19.22345042,42.42929468],[19.22355771,42.42884967],[19.22359139,42.42841566],[19.22356367,42.42814113],[19.22350496,42.42790927],[19.22338694,42.42759272],[19.22319472,42.42727969],[19.2228353,42.42685116],[19.22245204,42.42656122],[19.22142,42.4266],[19.22092,42.42663],[19.22026,42.42671],[19.21964,42.42677],[19.21863168,42.42685226],[19.21780616,42.42690396],[19.21746,42.42697],[19.21719879,42.42706103],[19.21681583,42.42721479],[19.21596,42.42767],[19.21555,42.42791],[19.21537,42.42804],[19.21493,42.4284],[19.21436,42.42892],[19.2141,42.42924],[19.21331,42.43041],[19.21308994,42.43070184],[19.21305,42.43079],[19.21239,42.43162],[19.21208,42.43198],[19.21181,42.43238],[19.21175,42.4325],[19.21175,42.43258],[19.21182,42.43289],[19.21199,42.43331],[19.21204,42.43352],[19.21203,42.4337],[19.21196,42.43387],[19.21190426,42.43398666],[19.21190351,42.43409697],[19.21186537,42.43413194],[19.2111057,42.43375923],[19.21031281,42.43321549],[19.20975819,42.43288038],[19.20823395,42.43239481],[19.20713946,42.43208092],[19.20605734,42.43179508],[19.20544207,42.43159535],[19.20483738,42.4313932],[19.20384005,42.43093809],[19.20325965,42.43070855],[19.20325778,42.43068985],[19.20384526,42.43092439],[19.20484804,42.43137868],[19.20544922,42.43157539],[19.2060446,42.43176973],[19.20706183,42.43203561],[19.20823991,42.43237611],[19.20900807,42.43261048],[19.20976117,42.43285838],[19.2103292,42.43319789],[19.21111614,42.43373613],[19.2117098,42.4340245],[19.21195149,42.43415691],[19.21214461,42.43425809],[19.21238154,42.43436136],[19.21274304,42.43450873],[19.21302512,42.43455074],[19.21331048,42.4345822],[19.21371937,42.4347344],[19.21458513,42.43482843],[19.21547472,42.43490135],[19.21627223,42.43522094],[19.21661049,42.43522996],[19.21718389,42.43520445],[19.21821296,42.4350452],[19.21975017,42.43494314],[19.22130316,42.43501287],[19.2213881,42.43496602],[19.221856,42.43481711],[19.22229171,42.43476762],[19.22287852,42.4346671],[19.22348857,42.43454502],[19.22377378,42.43449817],[19.22427952,42.43432001],[19.22473848,42.43409235],[19.22510147,42.43384512],[19.22563821,42.43412293],[19.22610819,42.43433606],[19.22816455,42.4351367],[19.23049122,42.43605742],[19.23534989,42.43795006],[19.23696429,42.43861979],[19.23711,42.43866],[19.23725858,42.43863991],[19.23739,42.43868],[19.23749715,42.43882884],[19.23762158,42.43888922],[19.23991054,42.43978063],[19.2420122,42.44059395],[19.24274862,42.44019037],[19.24356312,42.43972432],[19.24318776,42.43899281],[19.24327359,42.43897378],[19.24460322,42.43877936],[19.24591959,42.43858878],[19.24599841,42.43876253],[19.2466253,42.43992205],[19.24688935,42.44044198],[19.24717456,42.44095266],[19.24724758,42.44110354],[19.2482353,42.44297673],[19.25191522,42.44188891],[19.25472915,42.44109386],[19.25637871,42.44063244],[19.25894812,42.43988224],[19.2612344,42.4392023],[19.26221147,42.43891231],[19.26197216,42.43846198],[19.26055342,42.4358003],[19.26043928,42.43558276],[19.26108718,42.43539822],[19.26352993,42.43469745],[19.2663455,42.4338669],[19.26776201,42.43343413],[19.2677027,42.43332206],[19.26749066,42.43294087],[19.26784173,42.4328211]]}},{"type":"Feature","properties":{"name":"Trg Golootočkih žrtava (A)","id":1492,"type":"bus-stop","line_id":92},"geometry":{"type":"Point","coordinates":[19.26802397,42.43281307]}},{"type":"Feature","properties":{"name":"Ul. Oktobarske revolucije I (A)","id":1463,"type":"bus-stop","line_id":92},"geometry":{"type":"Point","coordinates":[19.2646873,42.43442053]}},{"type":"Feature","properties":{"name":"Most Braće Zlatičanin (A)","id":1464,"type":"bus-stop","line_id":92},"geometry":{"type":"Point","coordinates":[19.26152229,42.43739778]}},{"type":"Feature","properties":{"name":"Bulevar Svetog Petra Cetinjskog I (A)","id":1493,"type":"bus-stop","line_id":92},"geometry":{"type":"Point","coordinates":[19.250911,42.44239]}},{"type":"Feature","properties":{"name":"Zgrada Vektre (A)","id":1494,"type":"bus-stop","line_id":92},"geometry":{"type":"Point","coordinates":[19.247515,42.441781]}},{"type":"Feature","properties":{"name":"KBC (A)","id":1495,"type":"bus-stop","line_id":92},"geometry":{"type":"Point","coordinates":[19.245366,42.438717]}},{"type":"Feature","properties":{"name":"Capital Plaza I (A)","id":1496,"type":"bus-stop","line_id":92},"geometry":{"type":"Point","coordinates":[19.244021,42.440194]}},{"type":"Feature","properties":{"name":"Capital plaza II (A)","id":1497,"type":"bus-stop","line_id":92},"geometry":{"type":"Point","coordinates":[19.240815,42.440302]}},{"type":"Feature","properties":{"name":"Delta City I (A)","id":1507,"type":"bus-stop","line_id":92},"geometry":{"type":"Point","coordinates":[19.234309,42.43775]}},{"type":"Feature","properties":{"name":"Lješkopoljska I","id":1596,"type":"bus-stop","line_id":92},"geometry":{"type":"Point","coordinates":[19.22213408,42.42659151]}},{"type":"Feature","properties":{"name":"Lješkopoljska II","id":1597,"type":"bus-stop","line_id":92},"geometry":{"type":"Point","coordinates":[19.21840321,42.42688102]}},{"type":"Feature","properties":{"name":"Lješkopoljska III","id":1598,"type":"bus-stop","line_id":92},"geometry":{"type":"Point","coordinates":[19.21558147,42.42794059]}},{"type":"Feature","properties":{"name":"Trafostanica (Lješkopoljska)","id":1599,"type":"bus-stop","line_id":92},"geometry":{"type":"Point","coordinates":[19.21314061,42.43073044]}},{"type":"Feature","properties":{"name":"Vojvodjanska","id":1600,"type":"bus-stop","line_id":92},"geometry":{"type":"Point","coordinates":[19.21193562,42.43409191]}},{"type":"Feature","properties":{"name":"Okretište (Berska)","id":1601,"type":"bus-stop","line_id":92},"geometry":{"type":"Point","coordinates":[19.20303136,42.43058988]}},{"type":"Feature","properties":{"name":"Vojvodjanska I","id":1602,"type":"bus-stop","line_id":92},"geometry":{"type":"Point","coordinates":[19.21331232,42.43453774]}},{"type":"Feature","properties":{"name":"Vojvodjanska II","id":1603,"type":"bus-stop","line_id":92},"geometry":{"type":"Point","coordinates":[19.2212999,42.43500293]}},{"type":"Feature","properties":{"name":"Gornja Gorica (B)","id":1595,"type":"bus-stop","line_id":92},"geometry":{"type":"Point","coordinates":[19.225613,42.434072]}},{"type":"Feature","properties":{"name":"Delta City I (B)","id":1498,"type":"bus-stop","line_id":92},"geometry":{"type":"Point","coordinates":[19.235967,42.438187]}},{"type":"Feature","properties":{"name":"Capital plaza II (B)","id":1508,"type":"bus-stop","line_id":92},"geometry":{"type":"Point","coordinates":[19.24185,42.440506]}},{"type":"Feature","properties":{"name":"KBC (B)","id":1509,"type":"bus-stop","line_id":92},"geometry":{"type":"Point","coordinates":[19.246174,42.438959]}},{"type":"Feature","properties":{"name":"Zgrada Vektre (B)","id":1510,"type":"bus-stop","line_id":92},"geometry":{"type":"Point","coordinates":[19.247621,42.4417]}},{"type":"Feature","properties":{"name":"Bulevar Svetog Petra Cetinjskog II (B)","id":1604,"type":"bus-stop","line_id":92},"geometry":{"type":"Point","coordinates":[19.249951,42.442445]}},{"type":"Feature","properties":{"name":"Most Braće Zlatičanin (B)","id":1489,"type":"bus-stop","line_id":92},"geometry":{"type":"Point","coordinates":[19.26202118,42.43868445]}},{"type":"Feature","properties":{"name":"Ul. Oktobarske revolucije I (B)","id":1490,"type":"bus-stop","line_id":92},"geometry":{"type":"Point","coordinates":[19.26511157,42.43419723]}},{"type":"Feature","properties":{"name":"Trg Golootočkih žrtava (B)","id":1512,"type":"bus-stop","line_id":92},"geometry":{"type":"Point","coordinates":[19.26826,42.43257947]}}]}