{"type":"FeatureCollection","features":[{"type":"Feature","properties":{"name":"Podgorica - Vladne","type":"bus-line","id":98},"geometry":{"type":"LineString","coordinates":[[19.2671752,42.43214834],[19.26783323,42.43325255],[19.26784158,42.43336473],[19.26775813,42.43346987],[19.26349401,42.43473022],[19.26273376,42.43332338],[19.26258177,42.43325057],[19.2626211,42.43310628],[19.26077902,42.43002829],[19.26087856,42.42990687],[19.26790774,42.42426433],[19.26812768,42.42409626],[19.26801115,42.42389431],[19.26820636,42.42368619],[19.26851749,42.42369411],[19.27598834,42.41764839],[19.28092062,42.41360571],[19.29834664,42.39923176],[19.29856211,42.39900376],[19.29871559,42.3986864],[19.29875106,42.39851672],[19.29873973,42.39833559],[19.2985183,42.39736634],[19.29853231,42.39707692],[19.29860353,42.39686586],[19.2987904,42.39660043],[19.29900169,42.39637946],[19.29953426,42.39589615],[19.29986089,42.39555698],[19.30078924,42.39472965],[19.30253625,42.39317972],[19.30606604,42.39013962],[19.31025505,42.3865244],[19.31365013,42.38361385],[19.31531429,42.38217724],[19.31648046,42.38118066],[19.3162775,42.38090812],[19.31611121,42.3805997],[19.31597769,42.38037284],[19.31584314,42.38017867],[19.31566745,42.37998527],[19.31509674,42.37936732],[19.31447119,42.378586],[19.31426406,42.37831874],[19.31329817,42.37732804],[19.31319833,42.3772085],[19.31277335,42.37674815],[19.31259722,42.37652579],[19.312464,42.37628714],[19.31230724,42.37606874],[19.31219012,42.3759963],[19.31211054,42.37589679],[19.31205243,42.3749164],[19.31107074,42.37312776],[19.31076467,42.37257887],[19.31064635,42.37232061],[19.31065708,42.3721557],[19.31073397,42.37197383],[19.3108955,42.37183336],[19.31107372,42.37174001],[19.31179672,42.37131529],[19.31238621,42.3709128],[19.31295067,42.37050261],[19.3131265,42.37041057],[19.31337208,42.37019369],[19.31361586,42.37000346],[19.31410998,42.36962166],[19.31427479,42.36949637],[19.31443542,42.36933828],[19.31457102,42.36915465],[19.31468248,42.36895208],[19.31468904,42.3688138],[19.31471109,42.36864998],[19.31489289,42.36850069],[19.31538641,42.36833027],[19.31580484,42.36822722],[19.31688845,42.36847691],[19.31748092,42.36864338],[19.31792438,42.36868763],[19.3183583,42.3687178],[19.31897044,42.3687396],[19.31999862,42.36874026],[19.32044476,42.36874796],[19.32137907,42.36872352],[19.32247162,42.36868962],[19.32362944,42.36865945],[19.32466984,42.36866407],[19.32544768,42.36870547],[19.32613671,42.3687385],[19.32653874,42.36875765],[19.32673216,42.36879002],[19.32697833,42.3688574],[19.32722896,42.36856059],[19.3278408,42.36778024],[19.32825804,42.36720114],[19.32847351,42.36690542],[19.32905436,42.36626774],[19.32959139,42.36565889],[19.32972372,42.36553206],[19.32983994,42.3654039],[19.32992279,42.36528059],[19.32996124,42.3651542],[19.32995319,42.36493973],[19.3298766,42.36466139],[19.3297863,42.36444604],[19.32965666,42.36435465],[19.32945728,42.36410913],[19.32925999,42.36394772],[19.32898521,42.36376429],[19.3284741,42.36346283],[19.32783246,42.36312481],[19.32634652,42.36254258],[19.32577342,42.36231071],[19.32442009,42.3618181],[19.32226896,42.36134244],[19.32184279,42.36124378],[19.32126164,42.3611176],[19.32060421,42.36092976],[19.31961328,42.36048316],[19.3186307,42.35997843],[19.31557417,42.35677595],[19.30975735,42.35050221],[19.30956721,42.3503379],[19.30757284,42.34913532],[19.30343151,42.34662833],[19.30322885,42.34505298],[19.30312216,42.34449878],[19.30291831,42.3435635],[19.30285335,42.34261058],[19.30292964,42.34181758],[19.30296183,42.34112149],[19.30279613,42.33976761],[19.30271804,42.33936316],[19.30259228,42.33896267],[19.30207789,42.33787928],[19.30177033,42.33731796],[19.30148602,42.33681745],[19.30100203,42.33602481],[19.3005693,42.33522203],[19.29969907,42.33315334],[19.2990303,42.33144811],[19.29876387,42.33074926],[19.29864168,42.33016232],[19.29852337,42.32980033],[19.29840475,42.32957604],[19.29831326,42.32913672],[19.29815829,42.32863327],[19.29787695,42.32797868],[19.29775476,42.32758671],[19.29763973,42.32722801],[19.29746628,42.32624709],[19.29739088,42.32617173],[19.29738015,42.32597255],[19.2972666,42.32558608],[19.29715663,42.32516104],[19.2971313,42.32491713],[19.29692447,42.32478382],[19.2966342,42.32472433],[19.29645747,42.32469987],[19.29634809,42.3246406],[19.29623872,42.32459124],[19.29606378,42.32433917],[19.29592967,42.32405361],[19.29554135,42.32385618],[19.29523438,42.32360874],[19.29499179,42.32337253],[19.29412842,42.32270267],[19.29345071,42.32220975],[19.29311335,42.32237193],[19.29249913,42.32248497],[19.29222196,42.3225839],[19.29168254,42.32282607],[19.29168224,42.3229336],[19.29117501,42.32307374],[19.29099798,42.32313103],[19.29069549,42.32327822],[19.29018676,42.32356246],[19.28989232,42.3236993],[19.28916484,42.32394013],[19.28884268,42.32403532],[19.28764433,42.324242],[19.28676188,42.32441255],[19.28526163,42.32465757],[19.28442538,42.32474262],[19.2838788,42.32475319],[19.28397953,42.32546357],[19.28415716,42.32617041],[19.28444803,42.32748007],[19.28471148,42.32881526],[19.28471029,42.33028306],[19.28475618,42.33069726],[19.28489506,42.3310555],[19.28514183,42.33171777],[19.2855686,42.33267879],[19.28703904,42.33416191],[19.28686082,42.33440381],[19.28641796,42.33519206],[19.28615451,42.33575296],[19.28602666,42.33618915],[19.28564727,42.33705845],[19.28576052,42.33790571],[19.28601444,42.33924244],[19.28653121,42.34139948],[19.28655952,42.34170391],[19.28663224,42.34186957],[19.28668022,42.34273262],[19.26702619,42.43217254],[19.2676574,42.43324155],[19.26776707,42.43343072],[19.26754355,42.43349846],[19.26355958,42.43468843],[19.26280081,42.43333877],[19.26279992,42.43325871],[19.2628336,42.43317248],[19.26270247,42.43312475],[19.26262259,42.4329798],[19.26084161,42.43002169],[19.26133156,42.4296011],[19.26783919,42.42441393],[19.26819742,42.4241165],[19.26841736,42.42416226],[19.26863492,42.4240483],[19.26868916,42.42380939],[19.2688334,42.42359247],[19.26926017,42.42324356],[19.26942348,42.42303413],[19.27605987,42.41765279],[19.28095937,42.41365631],[19.29843903,42.3992322],[19.29870427,42.39888975],[19.29881811,42.39860673],[19.29881096,42.39833867],[19.29860294,42.39743588],[19.29856896,42.39722768],[19.29866195,42.39686234],[19.29893732,42.39653133],[19.29962397,42.39588382],[19.30000305,42.3955101],[19.30265546,42.39315331],[19.30614352,42.39015722],[19.30717826,42.38926092],[19.3082279,42.388336],[19.31035638,42.38652],[19.31373954,42.38362046],[19.31539774,42.38219045],[19.31654006,42.38122249],[19.31631327,42.38090438],[19.31605905,42.38043789],[19.31587458,42.380168],[19.31512564,42.37935697],[19.31484371,42.37901332],[19.31456655,42.37864985],[19.3142432,42.37825049],[19.31370944,42.37772432],[19.3132937,42.37726574],[19.31277722,42.37669729],[19.31262553,42.37650862],[19.31250691,42.37628383],[19.31233346,42.37605046],[19.31212842,42.37589239],[19.31209683,42.37535167],[19.31209415,42.3749142],[19.31110352,42.37312116],[19.31079507,42.37256258],[19.31068987,42.37233074],[19.3106851,42.37217749],[19.3107906,42.37197603],[19.31096047,42.37184349],[19.31186229,42.37131529],[19.31292683,42.37055765],[19.31319416,42.37040573],[19.31337386,42.37023883],[19.3141368,42.36964808],[19.31440264,42.3694279],[19.31460381,42.36917226],[19.31472123,42.36895648],[19.31474268,42.3688138],[19.31474686,42.3686698],[19.31494057,42.3685051],[19.31539834,42.3683699],[19.31580484,42.36824924],[19.31688845,42.36850774],[19.31752563,42.36868741],[19.31842685,42.36874863],[19.31902111,42.36876712],[19.31998372,42.36877108],[19.32134628,42.36875215],[19.32245672,42.36870283],[19.32461321,42.36867508],[19.32541788,42.36871868],[19.32613671,42.36876932],[19.32666659,42.36880323],[19.32702005,42.36891244],[19.32782948,42.36790002],[19.32850242,42.36696993],[19.32962716,42.36572275],[19.32989061,42.36546556],[19.33002412,42.36523435],[19.33002174,42.36492872],[19.32989359,42.36449008],[19.3296361,42.36420602],[19.32941258,42.36397348],[19.32901502,42.36368061],[19.32789266,42.36308165],[19.3270576,42.36273505],[19.32548463,42.36213388],[19.32429492,42.3617168],[19.32262659,42.36136006],[19.32183444,42.36117684],[19.32104468,42.36099186],[19.3202734,42.36069413],[19.31946874,42.36033122],[19.3186605,42.35989695],[19.31569338,42.35674071],[19.30993319,42.35051322],[19.30952549,42.35019694],[19.30765629,42.34908687],[19.3034792,42.34655035],[19.29965198,42.34424238],[19.29805994,42.34430406],[19.29758042,42.3443523],[19.29683626,42.34436574],[19.29597676,42.34423335],[19.29562271,42.34419767],[19.29515868,42.34420053],[19.29402322,42.34428093],[19.29331988,42.34427895],[19.29271281,42.34427036],[19.29196984,42.34410956],[19.29107368,42.34384964],[19.29073602,42.34372871],[19.29026842,42.34360844],[19.28956538,42.34347098],[19.28899854,42.3433864],[19.2887035,42.34332803],[19.28810835,42.3431626],[19.28714663,42.34289606],[19.28669006,42.34277205]]}},{"type":"Feature","properties":{"name":"Mitra Bakića (A)","id":1462,"type":"bus-stop","line_id":98},"geometry":{"type":"Point","coordinates":[19.26711202,42.43203704]}},{"type":"Feature","properties":{"name":"Ul. Oktobarske revolucije I (A)","id":1463,"type":"bus-stop","line_id":98},"geometry":{"type":"Point","coordinates":[19.2646873,42.43442053]}},{"type":"Feature","properties":{"name":"Velika pijaca (A)","id":1538,"type":"bus-stop","line_id":98},"geometry":{"type":"Point","coordinates":[19.261954,42.431725]}},{"type":"Feature","properties":{"name":"Bracana Bracanovića (A)","id":1563,"type":"bus-stop","line_id":98},"geometry":{"type":"Point","coordinates":[19.26213384,42.42895658]}},{"type":"Feature","properties":{"name":"Kamionska pijaca (A)","id":1542,"type":"bus-stop","line_id":98},"geometry":{"type":"Point","coordinates":[19.26898956,42.4232308]}},{"type":"Feature","properties":{"name":"Agrokombinat 13 jul (A)","id":1543,"type":"bus-stop","line_id":98},"geometry":{"type":"Point","coordinates":[19.26780405,42.42446352]}},{"type":"Feature","properties":{"name":"Cijevna (A)","id":1544,"type":"bus-stop","line_id":98},"geometry":{"type":"Point","coordinates":[19.29845095,42.39903105]}},{"type":"Feature","properties":{"name":"Rogame Tuzi (A)","id":1545,"type":"bus-stop","line_id":98},"geometry":{"type":"Point","coordinates":[19.30908859,42.38743483]}},{"type":"Feature","properties":{"name":"Karabuško polje (A)","id":1546,"type":"bus-stop","line_id":98},"geometry":{"type":"Point","coordinates":[19.31362152,42.38355574]}},{"type":"Feature","properties":{"name":"Šipčanik pista (A)","id":1547,"type":"bus-stop","line_id":98},"geometry":{"type":"Point","coordinates":[19.31377172,42.3777426]}},{"type":"Feature","properties":{"name":"Tuzi centar (A)","id":1548,"type":"bus-stop","line_id":98},"geometry":{"type":"Point","coordinates":[19.32856679,42.36676471]}},{"type":"Feature","properties":{"name":"Tuzi crkva (A)","id":1642,"type":"bus-stop","line_id":98},"geometry":{"type":"Point","coordinates":[19.32945734,42.3641702]}},{"type":"Feature","properties":{"name":"Tuzi stadion (A)","id":1643,"type":"bus-stop","line_id":98},"geometry":{"type":"Point","coordinates":[19.32196271,42.36131023]}},{"type":"Feature","properties":{"name":"Dušići (A)","id":1644,"type":"bus-stop","line_id":98},"geometry":{"type":"Point","coordinates":[19.30396557,42.34709484]}},{"type":"Feature","properties":{"name":"Ljekovići","id":1645,"type":"bus-stop","line_id":98},"geometry":{"type":"Point","coordinates":[19.30029653,42.33461916]}},{"type":"Feature","properties":{"name":"Vranj I","id":1646,"type":"bus-stop","line_id":98},"geometry":{"type":"Point","coordinates":[19.29863345,42.33015059]}},{"type":"Feature","properties":{"name":"Vranj džamija","id":1647,"type":"bus-stop","line_id":98},"geometry":{"type":"Point","coordinates":[19.2973817,42.32621742]}},{"type":"Feature","properties":{"name":"Vranj centar (A)","id":1648,"type":"bus-stop","line_id":98},"geometry":{"type":"Point","coordinates":[19.29708129,42.32490366]}},{"type":"Feature","properties":{"name":"Mataguži škola (A)","id":1649,"type":"bus-stop","line_id":98},"geometry":{"type":"Point","coordinates":[19.284139,42.325833]}},{"type":"Feature","properties":{"name":"Vladni (okretište)","id":1650,"type":"bus-stop","line_id":98},"geometry":{"type":"Point","coordinates":[19.285722,42.342389]}},{"type":"Feature","properties":{"name":"Velika pijaca (B)","id":1540,"type":"bus-stop","line_id":98},"geometry":{"type":"Point","coordinates":[19.262306,42.432722]}},{"type":"Feature","properties":{"name":"Dušići (B)","id":1651,"type":"bus-stop","line_id":98},"geometry":{"type":"Point","coordinates":[19.3041265,42.34669837]}},{"type":"Feature","properties":{"name":"Tuzi stadion (B)","id":1652,"type":"bus-stop","line_id":98},"geometry":{"type":"Point","coordinates":[19.32216709,42.36119421]}},{"type":"Feature","properties":{"name":"Tuzi centar (B)","id":1556,"type":"bus-stop","line_id":98},"geometry":{"type":"Point","coordinates":[19.32895839,42.36655465]}},{"type":"Feature","properties":{"name":"Šipčanik pista (B)","id":1557,"type":"bus-stop","line_id":98},"geometry":{"type":"Point","coordinates":[19.31364298,42.37740972]}},{"type":"Feature","properties":{"name":"Karabuško polje (B)","id":1558,"type":"bus-stop","line_id":98},"geometry":{"type":"Point","coordinates":[19.313704,42.38373008]}},{"type":"Feature","properties":{"name":"Rogame Tuzi (B)","id":1559,"type":"bus-stop","line_id":98},"geometry":{"type":"Point","coordinates":[19.30930853,42.38752992]}},{"type":"Feature","properties":{"name":"Cijevna (B)","id":1560,"type":"bus-stop","line_id":98},"geometry":{"type":"Point","coordinates":[19.29862998,42.3991697]}},{"type":"Feature","properties":{"name":"Agrokombinat 13 jul (B)","id":1561,"type":"bus-stop","line_id":98},"geometry":{"type":"Point","coordinates":[19.2680079,42.42437046]}},{"type":"Feature","properties":{"name":"Kamionska pijaca (B)","id":1562,"type":"bus-stop","line_id":98},"geometry":{"type":"Point","coordinates":[19.26920062,42.42334143]}},{"type":"Feature","properties":{"name":"Bracana Bracanovića (B)","id":1541,"type":"bus-stop","line_id":98},"geometry":{"type":"Point","coordinates":[19.26139891,42.42951883]}},{"type":"Feature","properties":{"name":"Ul. Oktobarske revolucije I (B)","id":1490,"type":"bus-stop","line_id":98},"geometry":{"type":"Point","coordinates":[19.26511157,42.43419723]}},{"type":"Feature","properties":{"name":"Mitra Bakića (B)","id":1491,"type":"bus-stop","line_id":98},"geometry":{"type":"Point","coordinates":[19.26695645,42.43211227]}}]}