{"type":"FeatureCollection","features":[{"type":"Feature","properties":{"name":"Podgorica-Berislavci - Bijelo polje","type":"bus-line","id":93},"geometry":{"type":"LineString","coordinates":[[42.43182455,19.26698506],[42.43325838,19.26782235],[42.43336924,19.26783204],[42.43345062,19.26778287],[42.43434,19.26481],[42.43541,19.26108],[42.43559,19.26046],[42.43538,19.26032],[42.43521,19.26021],[42.43497,19.26],[42.43483,19.25985],[42.43452,19.2596],[42.43415,19.25939],[42.43262,19.25862],[42.43087,19.25773],[42.42983,19.25716],[42.42828,19.25634],[42.42658,19.25545],[42.42438,19.25427],[42.42403,19.25409],[42.42334,19.25642],[42.42320902,19.25658554],[42.42257829,19.25624192],[42.42177398,19.25571382],[42.4216037,19.25560683],[42.42100815,19.25527185],[42.42083897,19.2550841],[42.42072,19.25486],[42.42059938,19.25471127],[42.4204511,19.25470829],[42.4203378,19.25472498],[42.42018841,19.25469935],[42.41860501,19.25367653],[42.41790163,19.25320417],[42.41713686,19.25274074],[42.41571,19.25191],[42.41333903,19.2504549],[42.41143794,19.24926102],[42.40909693,19.24785197],[42.40822004,19.2473188],[42.40195,19.24351],[42.39917,19.24181],[42.39684,19.24033],[42.39582,19.23969],[42.39568,19.23957],[42.39552133,19.23932552],[42.39540138,19.23909187],[42.39525,19.23905],[42.39503525,19.23912719],[42.39488933,19.23906937],[42.3944684,19.23882931],[42.39113,19.23673],[42.3884,19.23499],[42.38744,19.23435],[42.3867,19.23391],[42.3832,19.23172],[42.38147,19.23064],[42.381,19.23032],[42.38092,19.23022],[42.3808,19.22994],[42.38070856,19.22983304],[42.38039849,19.22981575],[42.38025,19.22982],[42.38013,19.22979],[42.37983,19.22961],[42.3785,19.22878],[42.3772,19.22793],[42.37629,19.22725],[42.37484,19.22608],[42.37221,19.22396],[42.37192,19.22376],[42.37162,19.22359],[42.37137,19.22352],[42.37101,19.22345],[42.37065,19.22345],[42.37014,19.22356],[42.36989,19.22367],[42.3696,19.22386],[42.36937,19.22405],[42.36914,19.22428],[42.36762,19.22614],[42.36716,19.22662],[42.36707,19.22669],[42.36692,19.22675],[42.36674424,19.22672361],[42.36659693,19.22690481],[42.36646712,19.22702447],[42.36635,19.2271],[42.3661,19.22716],[42.36588,19.22719],[42.36565,19.22719],[42.36536,19.22715],[42.36509,19.22708],[42.36492,19.22702],[42.36480199,19.22700182],[42.36444901,19.2267938],[42.3640969,19.22662348],[42.36336,19.22624],[42.36273,19.22591],[42.36256,19.22584],[42.36087,19.22493],[42.36007,19.22449],[42.35904,19.22396],[42.3586,19.22374],[42.35766,19.22343],[42.35692,19.22325],[42.35599,19.22313],[42.35401,19.22293],[42.35195,19.22273],[42.35022,19.22255],[42.34873,19.22241],[42.34699,19.22223],[42.34597,19.2221],[42.34519,19.22203],[42.34477,19.22193],[42.34448006,19.22188148],[42.34436783,19.22188625],[42.34436563,19.22173157],[42.34431,19.22159],[42.34418412,19.22148779],[42.34405427,19.22150746],[42.34397,19.22162],[42.34394,19.22173],[42.34392332,19.22185943],[42.34309035,19.22176808],[42.34173828,19.22163665],[42.33987952,19.22144413],[42.33848,19.22131],[42.33603,19.22105],[42.33484,19.22094],[42.33184,19.22064],[42.3314,19.22056],[42.32906,19.22036],[42.32823,19.22025],[42.32776,19.22013],[42.32752,19.22005],[42.32712,19.21987],[42.32664,19.21957],[42.32649518,19.21947271],[42.32615179,19.21996534],[42.32606707,19.21999738],[42.32596473,19.21999633],[42.32429,19.21984],[42.32338,19.21971],[42.32,19.21936],[42.31271,19.21861],[42.30929,19.21824],[42.30547,19.21786],[42.30413,19.21772],[42.30274,19.21758],[42.30244,19.2169],[42.30195,19.2162],[42.30138,19.21519],[42.30111,19.21482],[42.30082,19.21443],[42.30061,19.21423],[42.30049,19.2141],[42.30027,19.2138],[42.29999,19.21296],[42.29975,19.21218],[42.29948,19.21136],[42.2993,19.21052],[42.29927,19.21026],[42.29928,19.21011],[42.29937,19.2097],[42.2997,19.20892],[42.29977,19.20876],[42.3001,19.20819],[42.3003,19.20763],[42.30051,19.20695],[42.30075,19.20632],[42.30086,19.20615],[42.30107,19.20607],[42.30128,19.20591],[42.30155,19.20545],[42.3017,19.20508],[42.30212,19.20445],[42.3023,19.2041],[42.30232,19.20378],[42.30232,19.20334],[42.30245,19.20226],[42.3027,19.20119],[42.30289,19.20083],[42.30294,19.20064],[42.3031,19.20014],[42.30316,19.19937],[42.30314267,19.19860154],[42.3031592,19.19834673],[42.30311512,19.19771641],[42.30310189,19.1966334],[42.30312,19.19663],[42.30349,19.19646],[42.30358,19.19629],[42.30389,19.19631],[42.30404,19.19632],[42.30414,19.19658],[42.30441,19.19714],[42.30469,19.19761],[42.30514,19.19827],[42.30714,19.20111],[42.30814,19.20255],[42.30857,19.20314],[42.30893,19.20359],[42.30956505,19.20429915],[42.31002,19.20471],[42.31069786,19.20525074],[42.31154129,19.20578301],[42.31208,19.20604],[42.31264,19.20625],[42.31294,19.20636],[42.31353,19.20651],[42.31481,19.20674],[42.31502,19.20682],[42.31525,19.20694],[42.31551,19.20711],[42.31578,19.20734],[42.31601,19.20758],[42.31635,19.20801],[42.31661,19.20836],[42.31687,19.20863],[42.31714,19.20888],[42.31729323,19.20906559],[42.31736474,19.20924082],[42.31737025,19.20939386],[42.31743085,19.20955166],[42.31756186,19.20963511],[42.3176597,19.20966059],[42.31794045,19.20992479],[42.31815,19.21025],[42.31849,19.21073],[42.32027,19.213],[42.32295,19.21639],[42.32344,19.21699],[42.32366,19.21721],[42.32427,19.21771],[42.32542,19.21862],[42.32651,19.21948],[42.32691,19.21976],[42.32735,19.21998],[42.32772,19.22012],[42.32804,19.22022],[42.3284,19.22028],[42.33149,19.22058],[42.33194,19.22065],[42.33417,19.22088],[42.33512,19.22096],[42.33729,19.22118],[42.34109,19.22157],[42.34198,19.22167],[42.34394,19.22187],[42.34397227,19.22197491],[42.34401,19.22203],[42.34409386,19.22208488],[42.34417476,19.22209874],[42.34424739,19.22207229],[42.34429,19.22203],[42.3443387,19.22195293],[42.34436287,19.22191679],[42.34447785,19.22190823],[42.34476889,19.22194213],[42.34519142,19.22203608],[42.34594892,19.22212139],[42.34697877,19.22224253],[42.34872256,19.22243118],[42.35021225,19.22256619],[42.35194946,19.22274441],[42.35400663,19.22294408],[42.35598345,19.22314689],[42.35674886,19.22323197],[42.35765553,19.22345042],[42.35860602,19.22376752],[42.35903942,19.22397256],[42.36007004,19.22450393],[42.36255932,19.22586471],[42.36277821,19.22594935],[42.36335999,19.22626436],[42.36410362,19.22666818],[42.36478867,19.227027],[42.36494501,19.22714531],[42.36509453,19.2272082],[42.36536185,19.22727883],[42.36557632,19.22731787],[42.36586,19.22731],[42.36606,19.22729],[42.36634,19.22723],[42.3665585,19.22718182],[42.36666849,19.22718629],[42.36675,19.22725],[42.36683892,19.22728211],[42.36696982,19.2271851],[42.36704018,19.22698945],[42.36713034,19.22685683],[42.36725574,19.22672957],[42.36751425,19.22648177],[42.36822249,19.22565162],[42.36933663,19.22430664],[42.36962034,19.22403857],[42.36979847,19.22390133],[42.36994346,19.22382012],[42.3701414,19.22373548],[42.37043094,19.22364533],[42.37077739,19.22358826],[42.37091269,19.22359213],[42.37113804,19.22361732],[42.37126971,19.22363698],[42.37140644,19.22367036],[42.37174837,19.22380194],[42.37207941,19.22401145],[42.37273707,19.22454745],[42.3762573,19.22735512],[42.37692472,19.22787994],[42.37759994,19.22835678],[42.37978934,19.22972918],[42.3802,19.22999],[42.38032584,19.23023745],[42.38038,19.2304],[42.38047763,19.23052028],[42.38059,19.23054],[42.38067,19.23053],[42.38075028,19.23050135],[42.38086795,19.23051432],[42.38099222,19.23053741],[42.38127257,19.23069403],[42.38304623,19.23180148],[42.38738365,19.23452616],[42.3925795,19.23781097],[42.39467133,19.2391336],[42.39488922,19.23931748],[42.39498969,19.23947133],[42.39505,19.23965],[42.39511,19.23972],[42.39519312,19.23977137],[42.39526068,19.23978142],[42.39533381,19.23977211],[42.39540473,19.23973672],[42.39548,19.23973],[42.39560095,19.23974901],[42.39575919,19.23980273],[42.3967074,19.24043342],[42.39786,19.24114],[42.39970163,19.2423138],[42.40496,19.24551],[42.40816,19.24746],[42.40905,19.24803],[42.4095,19.24828],[42.41394895,19.25100207],[42.41812032,19.25356686],[42.41926,19.25426],[42.42012,19.25483],[42.42024,19.25497],[42.4203642,19.25522417],[42.42048718,19.25530776],[42.42059047,19.25528497],[42.42064657,19.25524622],[42.42085536,19.25526187],[42.42099704,19.25530478],[42.42108823,19.2553322],[42.42159369,19.25564542],[42.42256828,19.2562747],[42.42321221,19.25662816],[42.42333002,19.25671667],[42.43159755,19.26177979],[42.43308538,19.26264822],[42.43315885,19.2628324],[42.43333965,19.26278651],[42.43468975,19.26355511],[42.43342962,19.26776797],[42.43319,19.26765],[42.43200998,19.26693678]]}},{"type":"Feature","properties":{"name":"Mitra Baki\u0107a (A)","id":1462,"type":"bus-stop","line_id":93},"geometry":{"type":"Point","coordinates":[19.26711202,42.43203704]}},{"type":"Feature","properties":{"name":"Sahat kula (A)","id":1513,"type":"bus-stop","line_id":93},"geometry":{"type":"Point","coordinates":[19.26028311,42.43543012]}},{"type":"Feature","properties":{"name":"Zetskih Vladara (A)","id":1515,"type":"bus-stop","line_id":93},"geometry":{"type":"Point","coordinates":[19.25438762,42.41983706]}},{"type":"Feature","properties":{"name":"Prerada","id":1517,"type":"bus-stop","line_id":93},"geometry":{"type":"Point","coordinates":[19.23886299,42.3946535]}},{"type":"Feature","properties":{"name":"KAP I","id":1518,"type":"bus-stop","line_id":93},"geometry":{"type":"Point","coordinates":[19.23352003,42.38638088]}},{"type":"Feature","properties":{"name":"Asfaltna baza","id":1519,"type":"bus-stop","line_id":93},"geometry":{"type":"Point","coordinates":[19.22953427,42.37987454]}},{"type":"Feature","properties":{"name":"Cijevna I","id":1520,"type":"bus-stop","line_id":93},"geometry":{"type":"Point","coordinates":[19.22446489,42.36891288]}},{"type":"Feature","properties":{"name":"Mahala I","id":1521,"type":"bus-stop","line_id":93},"geometry":{"type":"Point","coordinates":[19.22358513,42.35845275]}},{"type":"Feature","properties":{"name":"Mahala II","id":1522,"type":"bus-stop","line_id":93},"geometry":{"type":"Point","coordinates":[19.22255516,42.35172547]}},{"type":"Feature","properties":{"name":"Mojanovi\u0107i","id":1523,"type":"bus-stop","line_id":93},"geometry":{"type":"Point","coordinates":[19.22160566,42.34190877]}},{"type":"Feature","properties":{"name":"Golubovci I","id":1564,"type":"bus-stop","line_id":93},"geometry":{"type":"Point","coordinates":[19.22079027,42.33179709]}},{"type":"Feature","properties":{"name":"\u0160u\u0161unja (okreti\u0161te) (B)","id":1605,"type":"bus-stop","line_id":93},"geometry":{"type":"Point","coordinates":[19.21749115,42.31197347]}},{"type":"Feature","properties":{"name":"Berislavci (A)","id":1606,"type":"bus-stop","line_id":93},"geometry":{"type":"Point","coordinates":[19.21718001,42.30289646]}},{"type":"Feature","properties":{"name":"Bijelo polje I","id":1607,"type":"bus-stop","line_id":93},"geometry":{"type":"Point","coordinates":[19.20427322,42.30219818]}},{"type":"Feature","properties":{"name":"Bijelo Polje II","id":1608,"type":"bus-stop","line_id":93},"geometry":{"type":"Point","coordinates":[19.19667721,42.3030631]}},{"type":"Feature","properties":{"name":"Mora\u010da","id":1609,"type":"bus-stop","line_id":93},"geometry":{"type":"Point","coordinates":[19.20719147,42.3151152]}},{"type":"Feature","properties":{"name":"Gori\u010dani","id":1610,"type":"bus-stop","line_id":93},"geometry":{"type":"Point","coordinates":[19.21285629,42.31939913]}},{"type":"Feature","properties":{"name":"Golubovci I (B)","id":1528,"type":"bus-stop","line_id":93},"geometry":{"type":"Point","coordinates":[19.22070444,42.33199934]}},{"type":"Feature","properties":{"name":"Mojanovi\u0107i (B)","id":1529,"type":"bus-stop","line_id":93},"geometry":{"type":"Point","coordinates":[19.22170525,42.34160939]}},{"type":"Feature","properties":{"name":"Mahala II (B)","id":1530,"type":"bus-stop","line_id":93},"geometry":{"type":"Point","coordinates":[19.22283411,42.35180476]}},{"type":"Feature","properties":{"name":"Mahala I (B)","id":1531,"type":"bus-stop","line_id":93},"geometry":{"type":"Point","coordinates":[19.22377825,42.35844085]}},{"type":"Feature","properties":{"name":"Cijevna I (B)","id":1532,"type":"bus-stop","line_id":93},"geometry":{"type":"Point","coordinates":[19.22363344,42.37094328]}},{"type":"Feature","properties":{"name":"KAP I (B)","id":1534,"type":"bus-stop","line_id":93},"geometry":{"type":"Point","coordinates":[19.23493624,42.38777557]}},{"type":"Feature","properties":{"name":"Prerada (B)","id":1535,"type":"bus-stop","line_id":93},"geometry":{"type":"Point","coordinates":[19.24025774,42.3960797]}},{"type":"Feature","properties":{"name":"Zelenika (B)","id":1611,"type":"bus-stop","line_id":93},"geometry":{"type":"Point","coordinates":[19.24707055,42.41264109]}},{"type":"Feature","properties":{"name":"Ul. 4. jula III (B)","id":1539,"type":"bus-stop","line_id":93},"geometry":{"type":"Point","coordinates":[19.260022,42.428611]}},{"type":"Feature","properties":{"name":"Mitra Baki\u0107a (B)","id":1491,"type":"bus-stop","line_id":93},"geometry":{"type":"Point","coordinates":[19.26695645,42.43211227]}},{"type":"Feature","properties":{"name":"Asfaltna baza (B)","id":1533,"type":"bus-stop","line_id":93},"geometry":{"type":"Point","coordinates":[19.23075199,42.3812139]}},{"type":"Feature","properties":{"name":"Sahat kula (B)","id":1568,"type":"bus-stop","line_id":93},"geometry":{"type":"Point","coordinates":[19.26019728,42.4349471]}}]}