{"type":"FeatureCollection","features":[{"type":"Feature","properties":{"name":"Stari aerodrom - Blok 6","type":"bus-line","id":113},"geometry":{"type":"LineString","coordinates":[[19.27912936,42.4314202],[19.27862739,42.43115565],[19.27817533,42.43160784],[19.27749549,42.43045361],[19.2773408,42.4301906],[19.27718971,42.4299242],[19.27685553,42.42935098],[19.2765265,42.4287822],[19.27602632,42.42792455],[19.27554117,42.42709866],[19.27600098,42.42695049],[19.27646388,42.42680566],[19.2769477,42.42665025],[19.2774342,42.42650029],[19.27623691,42.42442287],[19.27550763,42.4231818],[19.27456475,42.42151603],[19.27399173,42.42169009],[19.2734915,42.42185106],[19.27287277,42.42204698],[19.27277287,42.42206562],[19.27268371,42.42207435],[19.2726016,42.42206887],[19.27248521,42.42205546],[19.27216626,42.42197661],[19.27211315,42.42195466],[19.27197047,42.42190684],[19.27188467,42.42186554],[19.27179957,42.42182002],[19.27168417,42.42174538],[19.27127444,42.42147672],[19.26940647,42.42299337],[19.26933619,42.42310593],[19.26923239,42.42322986],[19.26879316,42.42360693],[19.26868141,42.42375816],[19.26866889,42.42382771],[19.26864999,42.4239734],[19.2685885,42.42406075],[19.26848397,42.42411485],[19.26839443,42.42413546],[19.2683163,42.42414171],[19.26823529,42.42412575],[19.26817439,42.42413652],[19.26810604,42.42415442],[19.26804671,42.4242015],[19.26775635,42.42442552],[19.2676667,42.42449899],[19.2675757,42.42455531],[19.26752222,42.42458224],[19.26747477,42.42460636],[19.26739979,42.42466138],[19.26713786,42.42488344],[19.2669304,42.42505618],[19.26682774,42.42514311],[19.26673044,42.42523499],[19.26631333,42.42558949],[19.26611143,42.42575421],[19.26589631,42.42592399],[19.26421859,42.42727473],[19.26338061,42.42795997],[19.26253591,42.42864025],[19.26232618,42.42880977],[19.2621037,42.42897779],[19.26167751,42.42931583],[19.2614154,42.4295221],[19.26115059,42.42973111],[19.2609722,42.42987409],[19.26088032,42.4299535],[19.26079381,42.43001707],[19.26173791,42.43160035],[19.26225936,42.43244824],[19.26235471,42.43251375],[19.26248767,42.43272715],[19.26273102,42.43311144],[19.26280104,42.43313624],[19.26284261,42.43320356],[19.26281709,42.43326685],[19.26283114,42.43331133],[19.26291926,42.43362633],[19.26350835,42.43469588],[19.26198733,42.43512876],[19.26046967,42.43557039],[19.26097781,42.43652729],[19.26149011,42.43748736],[19.26188439,42.4382074],[19.26227261,42.43900175],[19.25740064,42.4404204],[19.25541923,42.44102093],[19.25444195,42.441309],[19.25338821,42.4416145],[19.25210146,42.44199568],[19.25081068,42.44236894],[19.25016018,42.44256307],[19.24950967,42.44275719],[19.24885234,42.4429526],[19.24823201,42.44313009],[19.24586571,42.44380766],[19.24669782,42.44535945],[19.24652522,42.44540732],[19.24639972,42.44543779],[19.24602625,42.44553246],[19.24625241,42.44596301],[19.24649695,42.44635167],[19.24665183,42.44666736],[19.24666085,42.44672751],[19.24662136,42.44684862],[19.24658597,42.44691383],[19.24653474,42.44696834],[19.24646877,42.44701098],[19.24603403,42.4472095],[19.24589282,42.44727687],[19.24574435,42.44735012],[19.24558272,42.44742949],[19.24529855,42.44757889],[19.24498296,42.44775243],[19.24467139,42.44792943],[19.24457387,42.44798411],[19.24447232,42.44804128],[19.24417977,42.44820501],[19.24402219,42.44829583],[19.24388721,42.44836628],[19.24379194,42.44841951],[19.24369472,42.44847329],[19.24356,42.44855048],[19.24348846,42.44858849],[19.24341104,42.4486323],[19.2431574,42.44877869],[19.24251497,42.44914853],[19.24223887,42.44930809],[19.24197886,42.44945874],[19.241719,42.44960938],[19.24143938,42.4497674],[19.24130373,42.44984531],[19.24118433,42.44990307],[19.24102608,42.44996914],[19.24087372,42.45002962],[19.24066216,42.45008811],[19.2404245,42.4501561],[19.24030836,42.45018663],[19.24021566,42.45021571],[19.24018953,42.45022607],[19.24016183,42.45026144],[19.24016547,42.45031506],[19.24015762,42.45034173],[19.24013502,42.45037532],[19.24009189,42.45039625],[19.24005213,42.45041034],[19.23998823,42.45041107],[19.23994814,42.45039473],[19.23991072,42.45037097],[19.23988554,42.45033906],[19.23987377,42.45030815],[19.23989098,42.45026046],[19.23994301,42.45021403],[19.23994261,42.4501174],[19.23976626,42.4498033],[19.23951945,42.44934856],[19.23906265,42.44850036],[19.2381538,42.44678647],[19.23811974,42.44671887],[19.23808635,42.44665028],[19.23515615,42.44756878],[19.23353967,42.44806171],[19.23288181,42.44826311],[19.23222976,42.44846637],[19.23227473,42.44855742],[19.23232363,42.44865382],[19.23268619,42.44944774],[19.23287582,42.44983986],[19.23312201,42.45028735],[19.23334073,42.45067734],[19.23345047,42.45087324],[19.23350965,42.45097721],[19.23356476,42.45108316],[19.233754,42.45142663],[19.2338752,42.45164472],[19.2339347,42.45176184],[19.23416143,42.45217902],[19.23447589,42.45270303],[19.23451301,42.45276811],[19.23392466,42.45173604],[19.2334153,42.45080167],[19.23284365,42.44977939],[19.23219401,42.44837845],[19.2334407,42.44798273],[19.23484677,42.44754005],[19.23744994,42.44674423],[19.2380419,42.44655276],[19.23809071,42.44665771],[19.23814998,42.44676362],[19.23878615,42.44798294],[19.23995279,42.45012696],[19.24005481,42.45020552],[19.24009273,42.45021426],[19.24011604,42.45022828],[19.24019811,42.45022341],[19.24087237,42.45003166],[19.24112235,42.44993311],[19.24129838,42.44985015],[19.24355411,42.44855421],[19.24468652,42.44792299],[19.24530845,42.44757707],[19.24568933,42.44737863],[19.24608579,42.44718843],[19.24647418,42.44701164],[19.24654175,42.44696408],[19.24659392,42.4469087],[19.24662773,42.4468381],[19.24666078,42.44672363],[19.24665477,42.44667295],[19.24650217,42.44635811],[19.24624746,42.44594945],[19.2460294,42.4455341],[19.24656571,42.44539732],[19.24569979,42.44371827],[19.24604937,42.44360917],[19.24822717,42.44300001],[19.24984305,42.44253237],[19.2539729,42.44133061],[19.25460425,42.44114119],[19.2560432,42.44073629],[19.25811082,42.440138],[19.26223398,42.4389325],[19.26190077,42.43823101],[19.2614849,42.43747504],[19.26139394,42.43729759],[19.26097139,42.43651293],[19.26047399,42.43557027],[19.26259153,42.43495399],[19.26351466,42.43469648],[19.26334736,42.4344129],[19.26318274,42.43410656],[19.26291729,42.43362688],[19.26269681,42.43331839],[19.26265032,42.43330926],[19.26260841,42.43328971],[19.26257455,42.43325136],[19.2625665,42.4332088],[19.26257991,42.43316822],[19.2625773,42.43314705],[19.26227758,42.43256028],[19.26225918,42.4325276],[19.2622562,42.43245137],[19.2614089,42.43104903],[19.26079624,42.43002671],[19.26112429,42.42974667],[19.26135161,42.42957396],[19.262143,42.42895248],[19.26266864,42.42853916],[19.26413368,42.42734904],[19.26545294,42.42628718],[19.26610739,42.42576147],[19.26675112,42.42521597],[19.26734572,42.42471283],[19.26745657,42.42461766],[19.2675255,42.42451964],[19.26787931,42.4242222],[19.26795724,42.42412929],[19.26800343,42.42405985],[19.26803217,42.42399239],[19.26802413,42.42391022],[19.2680407,42.42383904],[19.26807008,42.42377866],[19.26817567,42.4237048],[19.26827055,42.42368104],[19.26835203,42.42367114],[19.26843115,42.423685],[19.26852905,42.42366322],[19.26869334,42.42355086],[19.26898134,42.42330065],[19.26917429,42.42314881],[19.26928007,42.42308112],[19.26942253,42.42298476],[19.27127648,42.42148282],[19.27180281,42.42182467],[19.27197617,42.42190906],[19.27218168,42.42197971],[19.27248256,42.42205501],[19.27251254,42.42206002],[19.27267783,42.42207617],[19.27276187,42.42206862],[19.2728857,42.42204361],[19.27372576,42.42177736],[19.27456447,42.42151605],[19.27551397,42.42319122],[19.27623906,42.42442797],[19.27743577,42.4265024],[19.27554331,42.42709802],[19.27604244,42.4279445],[19.27653583,42.42879838],[19.27734026,42.43018641],[19.27817688,42.43160708],[19.27862757,42.43115983],[19.27913063,42.43142698]]}},{"type":"Feature","properties":{"name":"Tržni centar (A)","id":1854,"type":"bus-stop","line_id":113},"geometry":{"type":"Point","coordinates":[19.27915313,42.43146669]}},{"type":"Feature","properties":{"name":"Splitske Zgrade (A)","id":1855,"type":"bus-stop","line_id":113},"geometry":{"type":"Point","coordinates":[19.27772284,42.43083338]}},{"type":"Feature","properties":{"name":"OŠ Pavle Rovinski (A)","id":1856,"type":"bus-stop","line_id":113},"geometry":{"type":"Point","coordinates":[19.27556103,42.42722862]}},{"type":"Feature","properties":{"name":"Zmaj Jovina","id":1857,"type":"bus-stop","line_id":113},"geometry":{"type":"Point","coordinates":[19.276083,42.426889]}},{"type":"Feature","properties":{"name":"Neznanih junaka I","id":1858,"type":"bus-stop","line_id":113},"geometry":{"type":"Point","coordinates":[19.27645683,42.42475535]}},{"type":"Feature","properties":{"name":"Neznanih junaka II","id":1859,"type":"bus-stop","line_id":113},"geometry":{"type":"Point","coordinates":[19.27544497,42.42308033]}},{"type":"Feature","properties":{"name":"Neznanih junaka III","id":1860,"type":"bus-stop","line_id":113},"geometry":{"type":"Point","coordinates":[19.27456688,42.42157752]}},{"type":"Feature","properties":{"name":"Andrije Paltašića","id":1861,"type":"bus-stop","line_id":113},"geometry":{"type":"Point","coordinates":[19.27339911,42.42186462]}},{"type":"Feature","properties":{"name":"Kamionska pijaca (A)","id":1542,"type":"bus-stop","line_id":113},"geometry":{"type":"Point","coordinates":[19.26898956,42.4232308]}},{"type":"Feature","properties":{"name":"Bracana Bracanovića (A)","id":1563,"type":"bus-stop","line_id":113},"geometry":{"type":"Point","coordinates":[19.26213384,42.42895658]}},{"type":"Feature","properties":{"name":"Velika pijaca (A)","id":1538,"type":"bus-stop","line_id":113},"geometry":{"type":"Point","coordinates":[19.261954,42.431725]}},{"type":"Feature","properties":{"name":"Ul. Oktobarske revolucije II (A)","id":1569,"type":"bus-stop","line_id":113},"geometry":{"type":"Point","coordinates":[19.26265419,42.43500253]}},{"type":"Feature","properties":{"name":"Most Braće Zlatičanin (A)","id":1464,"type":"bus-stop","line_id":113},"geometry":{"type":"Point","coordinates":[19.26152229,42.43739778]}},{"type":"Feature","properties":{"name":"Bulevar Svetog Petra Cetinjskog I (A)","id":1493,"type":"bus-stop","line_id":113},"geometry":{"type":"Point","coordinates":[19.250911,42.44239]}},{"type":"Feature","properties":{"name":"Blok 5 I (A)","id":1710,"type":"bus-stop","line_id":113},"geometry":{"type":"Point","coordinates":[19.246236,42.445788]}},{"type":"Feature","properties":{"name":"Blok 5 - benz. pumpa (A)","id":1711,"type":"bus-stop","line_id":113},"geometry":{"type":"Point","coordinates":[19.245639,42.447434]}},{"type":"Feature","properties":{"name":"Blok V (žuta zgrada) (A)","id":1761,"type":"bus-stop","line_id":113},"geometry":{"type":"Point","coordinates":[19.24313307,42.44874331]}},{"type":"Feature","properties":{"name":"Blok 5 - zadnja zgrada (A)","id":1712,"type":"bus-stop","line_id":113},"geometry":{"type":"Point","coordinates":[19.240775,42.450118]}},{"type":"Feature","properties":{"name":"Meše Selimović (A)","id":1862,"type":"bus-stop","line_id":113},"geometry":{"type":"Point","coordinates":[19.23908841,42.44876635]}},{"type":"Feature","properties":{"name":"Blok VI (ispred Tološke šume) (A)","id":1762,"type":"bus-stop","line_id":113},"geometry":{"type":"Point","coordinates":[19.23780355,42.44677918]}},{"type":"Feature","properties":{"name":"Vlada Ćetkovića (okretište)","id":1863,"type":"bus-stop","line_id":113},"geometry":{"type":"Point","coordinates":[19.23445344,42.4526817]}},{"type":"Feature","properties":{"name":"Vlada Ćetkovića I (B)","id":1864,"type":"bus-stop","line_id":113},"geometry":{"type":"Point","coordinates":[19.2328335,42.44995382]}},{"type":"Feature","properties":{"name":"Tološi I (B)","id":1770,"type":"bus-stop","line_id":113},"geometry":{"type":"Point","coordinates":[19.23288168,42.44812047]}},{"type":"Feature","properties":{"name":"Meše Selimović (B)","id":1771,"type":"bus-stop","line_id":113},"geometry":{"type":"Point","coordinates":[19.23869675,42.44761757]}},{"type":"Feature","properties":{"name":"Blok 5 - zadnja zgrada (B)","id":1714,"type":"bus-stop","line_id":113},"geometry":{"type":"Point","coordinates":[19.241153,42.449861]}},{"type":"Feature","properties":{"name":"Blok V (žuta zgrada) (B)","id":1772,"type":"bus-stop","line_id":113},"geometry":{"type":"Point","coordinates":[19.24320817,42.44870769]}},{"type":"Feature","properties":{"name":"Blok 5 - benz. pumpa (B)","id":1715,"type":"bus-stop","line_id":113},"geometry":{"type":"Point","coordinates":[19.245724,42.447257]}},{"type":"Feature","properties":{"name":"Blok 5 I (B)","id":1716,"type":"bus-stop","line_id":113},"geometry":{"type":"Point","coordinates":[19.246092,42.445767]}},{"type":"Feature","properties":{"name":"Bulevar Svetog Petra Cetinjskog II (B)","id":1604,"type":"bus-stop","line_id":113},"geometry":{"type":"Point","coordinates":[19.249951,42.442445]}},{"type":"Feature","properties":{"name":"Bulevar Svetog Petra Cetinjskog I (B)","id":1511,"type":"bus-stop","line_id":113},"geometry":{"type":"Point","coordinates":[19.252771,42.441624]}},{"type":"Feature","properties":{"name":"Most Braće Zlatičanin (B)","id":1489,"type":"bus-stop","line_id":113},"geometry":{"type":"Point","coordinates":[19.26202118,42.43868445]}},{"type":"Feature","properties":{"name":"Ul. Oktobarske revolucije II (B)","id":1628,"type":"bus-stop","line_id":113},"geometry":{"type":"Point","coordinates":[19.26175296,42.43518861]}},{"type":"Feature","properties":{"name":"Velika pijaca (B)","id":1540,"type":"bus-stop","line_id":113},"geometry":{"type":"Point","coordinates":[19.262306,42.432722]}},{"type":"Feature","properties":{"name":"Bracana Bracanovića (B)","id":1541,"type":"bus-stop","line_id":113},"geometry":{"type":"Point","coordinates":[19.26139891,42.42951883]}},{"type":"Feature","properties":{"name":"Kamionska pijaca (B)","id":1562,"type":"bus-stop","line_id":113},"geometry":{"type":"Point","coordinates":[19.26920062,42.42334143]}},{"type":"Feature","properties":{"name":"OŠ Pavle Rovinski (B)","id":1865,"type":"bus-stop","line_id":113},"geometry":{"type":"Point","coordinates":[19.2757273,42.42731652]}},{"type":"Feature","properties":{"name":"Tržni centar (B)","id":1866,"type":"bus-stop","line_id":113},"geometry":{"type":"Point","coordinates":[19.27918063,42.43144076]}}]}