{"type":"FeatureCollection","features":[{"type":"Feature","properties":{"name":"Željeznička stanica - (Tološi) MAREZA","type":"bus-line","id":105},"geometry":{"type":"LineString","coordinates":[[19.26808059,42.43276468],[19.2676264,42.43291513],[19.26783383,42.43326399],[19.2678231,42.43340872],[19.26769137,42.43348219],[19.26631987,42.43390055],[19.26489234,42.43432155],[19.26428258,42.43450323],[19.26389366,42.43461475],[19.2634809,42.43473726],[19.26295936,42.43487957],[19.26247954,42.43502188],[19.26079273,42.43550138],[19.26049232,42.43558848],[19.26127017,42.4370771],[19.26149547,42.43748884],[19.26188707,42.43821334],[19.26230669,42.43900336],[19.25913215,42.4399491],[19.25744712,42.44044044],[19.25620794,42.44079321],[19.25506413,42.44114994],[19.25320089,42.44171781],[19.25204933,42.44204726],[19.25052702,42.44248932],[19.24980283,42.44270045],[19.24833894,42.44314382],[19.24853623,42.44350493],[19.24931407,42.44495334],[19.24968898,42.44566191],[19.24990833,42.44609911],[19.25006092,42.44639291],[19.24885631,42.44680767],[19.24778998,42.4471217],[19.24747765,42.4472189],[19.24691558,42.44741463],[19.2463851,42.44760639],[19.24601793,42.44776736],[19.24533784,42.4481146],[19.24465656,42.44848822],[19.24396753,42.44887701],[19.24317539,42.44935772],[19.24239814,42.44979621],[19.24199045,42.4500535],[19.24164712,42.45028703],[19.24138129,42.45046251],[19.24060643,42.45098763],[19.24044013,42.45113012],[19.24030125,42.45125107],[19.24000561,42.45149031],[19.23939109,42.45197716],[19.23871279,42.45249171],[19.23766255,42.45328772],[19.23669815,42.45400412],[19.23616409,42.45441266],[19.2368573,42.45512509],[19.2361927,42.45570998],[19.23586309,42.45598131],[19.23543274,42.45644921],[19.23508108,42.45677639],[19.23473001,42.45710533],[19.2345044,42.45728563],[19.2340976,42.45753277],[19.23373461,42.45698704],[19.23355311,42.45671857],[19.23335254,42.45645449],[19.23291385,42.4559325],[19.23247933,42.45544832],[19.23213244,42.45507012],[19.23164785,42.45454987],[19.231233,42.45409647],[19.23083603,42.45366241],[19.23047304,42.45321911],[19.23037469,42.45310785],[19.22988653,42.45334005],[19.22965467,42.4534401],[19.22932267,42.45361096],[19.22915339,42.45369012],[19.22866941,42.45381457],[19.22820449,42.45392891],[19.22738016,42.45410922],[19.22690511,42.45422356],[19.22632635,42.45435813],[19.22595561,42.45444873],[19.22544599,42.45456483],[19.22494411,42.4546994],[19.22466934,42.45478427],[19.22409356,42.45490037],[19.22345102,42.45502087],[19.22292292,42.45512421],[19.22208726,42.45520073],[19.22147095,42.45525218],[19.22096074,42.45527637],[19.22031462,42.45530144],[19.21961606,42.45531991],[19.21950221,42.45480208],[19.21907902,42.45359205],[19.21879649,42.45275426],[19.21601057,42.454067],[19.21510935,42.45449446],[19.21457291,42.45471611],[19.21423137,42.45481066],[19.2139715,42.45486057],[19.21371639,42.45487706],[19.21345413,42.45489113],[19.21295226,42.45484232],[19.2124486,42.45476008],[19.21202004,42.45471039],[19.21169698,42.45469676],[19.21121091,42.45474227],[19.21069264,42.45482033],[19.20978248,42.45500811],[19.20845807,42.45530364],[19.20789331,42.45538851],[19.2071861,42.45544172],[19.20619011,42.45550417],[19.20493186,42.455812],[19.20358062,42.45616073],[19.20303345,42.45635862],[19.20138299,42.4572201],[19.19898719,42.45855804],[19.19650912,42.45985944],[19.19596553,42.46011273],[19.19520557,42.46036205],[19.1939646,42.46065931],[19.19297516,42.46087126],[19.19234097,42.46106298],[19.19200718,42.46129252],[19.19176161,42.46158581],[19.19132173,42.46271984],[19.19108659,42.46331235],[19.19086993,42.46390046],[19.19058979,42.46462773],[19.19014692,42.4653972],[19.19006228,42.46576193],[19.19012547,42.46585382],[19.19035435,42.46600244],[19.19063807,42.46629307],[19.19073284,42.4664828],[19.19049203,42.46776227],[19.19042647,42.46793551],[19.1903016,42.46805642],[19.189955,42.46820942],[19.18939233,42.46840904],[19.1887635,42.46861217],[19.18840826,42.4688597],[19.18814123,42.46912834],[19.18756783,42.47003845],[19.1874671,42.47042842],[19.18737352,42.47068694],[19.18725669,42.47085841],[19.18695033,42.47124267],[19.18679476,42.47141237],[19.26804483,42.43274928],[19.26748633,42.43294153],[19.26758945,42.43310122],[19.26768601,42.43329434],[19.26775694,42.4334294],[19.26700026,42.43366453],[19.26629007,42.43388295],[19.26484764,42.43430615],[19.26430345,42.43446584],[19.26393241,42.43457516],[19.26356733,42.43468447],[19.26301002,42.43483998],[19.26245868,42.43499549],[19.26080167,42.43547719],[19.26043272,42.43558188],[19.26124334,42.4370925],[19.26146865,42.43750863],[19.26184833,42.43823313],[19.26220834,42.43890219],[19.25897717,42.43986772],[19.25738752,42.44031947],[19.2561692,42.44068324],[19.25476015,42.44107736],[19.25324261,42.44150227],[19.25206125,42.44183833],[19.25070882,42.442232],[19.24973726,42.44251791],[19.24820781,42.44297008],[19.24847066,42.44345875],[19.24927533,42.44497093],[19.24964428,42.44565092],[19.24987555,42.4461079],[19.25001025,42.44634233],[19.24880862,42.44676808],[19.24771845,42.44707992],[19.24748659,42.44716393],[19.24690962,42.44736185],[19.24631953,42.4475668],[19.24594343,42.44773877],[19.24532413,42.44805874],[19.24460292,42.44845523],[19.24385726,42.44888581],[19.2431426,42.44930934],[19.24238026,42.44973464],[19.24203217,42.44995234],[19.24170077,42.45017708],[19.24133956,42.45041413],[19.24064219,42.45089527],[19.24048185,42.45101578],[19.24033403,42.45114991],[19.23998773,42.45143974],[19.23935533,42.45192878],[19.23868895,42.45242794],[19.23762977,42.45323494],[19.23666537,42.45395574],[19.23610151,42.45438848],[19.23681855,42.45512069],[19.23616886,42.45569239],[19.23580647,42.45599231],[19.23538804,42.45646241],[19.23504829,42.4567698],[19.23480064,42.4570088],[19.23458397,42.45718668],[19.23436373,42.45734433],[19.2341125,42.45749759],[19.23377633,42.45698484],[19.23336744,42.45641052],[19.23294663,42.45591271],[19.23252106,42.45543952],[19.23217416,42.45506352],[19.23168957,42.45454328],[19.23126876,42.45407888],[19.23085392,42.45363163],[19.23050582,42.45320812],[19.23038363,42.45307926],[19.22985077,42.45331586],[19.22913551,42.45366813],[19.22864854,42.45379478],[19.22812104,42.45392012],[19.22737122,42.45408503],[19.22679186,42.45422136],[19.22629654,42.45433834],[19.22594965,42.45442014],[19.22513306,42.4546132],[19.22489345,42.4546862],[19.22464252,42.45476668],[19.22406673,42.45488058],[19.22301888,42.45508243],[19.22253251,42.45513301],[19.22204852,42.45517434],[19.22145903,42.4552258],[19.22095478,42.45524559],[19.22030866,42.45527285],[19.21964884,42.45530452],[19.21952724,42.45477372],[19.21911478,42.45359205],[19.21880543,42.45269049],[19.21575725,42.45413517],[19.21526909,42.45436583],[19.21475172,42.45459671],[19.21435535,42.4547282],[19.21414033,42.45477471],[19.21391249,42.45481615],[19.2136538,42.45483638],[19.21340197,42.45483726],[19.2131345,42.45481692],[19.21285391,42.45477855],[19.2124486,42.45471611],[19.21220034,42.45467521],[19.21170339,42.45464981],[19.21151966,42.45466487],[19.21114549,42.45469929],[19.21064049,42.45478075],[19.20975864,42.45496304],[19.20852289,42.4552391],[19.2078054,42.45535201],[19.20718163,42.45539445],[19.20618117,42.45546019],[19.20483634,42.45578562],[19.20405418,42.4559834],[19.20363367,42.45609257],[19.20353323,42.4561194],[19.20329154,42.45620031],[19.20302749,42.4562997],[19.20284271,42.45639161],[19.20110792,42.4573074],[19.19943392,42.4582456],[19.19774324,42.45914751],[19.19602394,42.46002786],[19.19535577,42.46025828],[19.1946137,42.46046187],[19.19292867,42.46082597],[19.19232249,42.46101197],[19.1919744,42.46125206],[19.19169724,42.46158933],[19.19130623,42.46255935],[19.19078946,42.46390266],[19.19054329,42.46455342],[19.19041991,42.46480361],[19.19013649,42.46527892],[19.18993533,42.46567333],[19.18981433,42.46578633],[19.18982029,42.46592615],[19.18972313,42.46631572],[19.18917298,42.46777019],[19.18898553,42.46807291],[19.18889433,42.46817381],[19.18892682,42.46825823],[19.18887436,42.46840904],[19.18871105,42.46858798],[19.18855607,42.46868383],[19.18822169,42.46895511],[19.18801844,42.46918593],[19.18786883,42.4693961],[19.18752164,42.46999448],[19.1874665,42.47014396],[19.18734193,42.4705933],[19.18720067,42.47083643],[19.18694675,42.47114199],[19.18682218,42.47131741],[19.18666959,42.47145194]]}},{"type":"Feature","properties":{"name":"Trg Golootočkih žrtava (A)","id":1492,"type":"bus-stop","line_id":105},"geometry":{"type":"Point","coordinates":[19.26802397,42.43281307]}},{"type":"Feature","properties":{"name":"Ul. Oktobarske revolucije I (A)","id":1463,"type":"bus-stop","line_id":105},"geometry":{"type":"Point","coordinates":[19.2646873,42.43442053]}},{"type":"Feature","properties":{"name":"Ul. Oktobarske revolucije II (A)","id":1569,"type":"bus-stop","line_id":105},"geometry":{"type":"Point","coordinates":[19.26265419,42.43500253]}},{"type":"Feature","properties":{"name":"Most Braće Zlatičanin (A)","id":1464,"type":"bus-stop","line_id":105},"geometry":{"type":"Point","coordinates":[19.26152229,42.43739778]}},{"type":"Feature","properties":{"name":"Bulevar Svetog Petra Cetinjskog I (A)","id":1493,"type":"bus-stop","line_id":105},"geometry":{"type":"Point","coordinates":[19.250911,42.44239]}},{"type":"Feature","properties":{"name":"Mala pijaca (A)","id":1722,"type":"bus-stop","line_id":105},"geometry":{"type":"Point","coordinates":[19.24990833,42.44609911]}},{"type":"Feature","properties":{"name":"Dalmatinska I (A)","id":1723,"type":"bus-stop","line_id":105},"geometry":{"type":"Point","coordinates":[19.24529639,42.44813531]}},{"type":"Feature","properties":{"name":"Dalmatinska II (A)","id":1724,"type":"bus-stop","line_id":105},"geometry":{"type":"Point","coordinates":[19.24323645,42.4493228]}},{"type":"Feature","properties":{"name":"Dalmatinska III (A)","id":1725,"type":"bus-stop","line_id":105},"geometry":{"type":"Point","coordinates":[19.24125016,42.45058785]}},{"type":"Feature","properties":{"name":"Donji Vranići (A)","id":1726,"type":"bus-stop","line_id":105},"geometry":{"type":"Point","coordinates":[19.23375878,42.45703858]}},{"type":"Feature","properties":{"name":"Boška Buhe I (A)","id":1727,"type":"bus-stop","line_id":105},"geometry":{"type":"Point","coordinates":[19.23247933,42.45544832]}},{"type":"Feature","properties":{"name":"Boška Buhe II (A)","id":1728,"type":"bus-stop","line_id":105},"geometry":{"type":"Point","coordinates":[19.23044622,42.45314875]}},{"type":"Feature","properties":{"name":"Milana Raičkovića I (A)","id":1729,"type":"bus-stop","line_id":105},"geometry":{"type":"Point","coordinates":[19.22811806,42.45388494]}},{"type":"Feature","properties":{"name":"Milana Raičkovića II (A)","id":1730,"type":"bus-stop","line_id":105},"geometry":{"type":"Point","coordinates":[19.2262727,42.45433614]}},{"type":"Feature","properties":{"name":"Milana Raičkovića III (A)","id":1731,"type":"bus-stop","line_id":105},"geometry":{"type":"Point","coordinates":[19.22251761,42.45510002]}},{"type":"Feature","properties":{"name":"Andrije Lainovića (A)","id":1732,"type":"bus-stop","line_id":105},"geometry":{"type":"Point","coordinates":[19.21889966,42.45316268]}},{"type":"Feature","properties":{"name":"Partizanski put I (A)","id":1733,"type":"bus-stop","line_id":105},"geometry":{"type":"Point","coordinates":[19.21035672,42.4549045]}},{"type":"Feature","properties":{"name":"Mareza (A)","id":1734,"type":"bus-stop","line_id":105},"geometry":{"type":"Point","coordinates":[19.1866594,42.4715105]}},{"type":"Feature","properties":{"name":"Mareza (B)","id":1735,"type":"bus-stop","line_id":105},"geometry":{"type":"Point","coordinates":[19.18661112,42.47143928]}},{"type":"Feature","properties":{"name":"Partizanski put I (B)","id":1736,"type":"bus-stop","line_id":105},"geometry":{"type":"Point","coordinates":[19.20991415,42.4549045]}},{"type":"Feature","properties":{"name":"Andrije Lainovića (B)","id":1737,"type":"bus-stop","line_id":105},"geometry":{"type":"Point","coordinates":[19.21914643,42.45349208]}},{"type":"Feature","properties":{"name":"Milana Raičkovića III (B)","id":1738,"type":"bus-stop","line_id":105},"geometry":{"type":"Point","coordinates":[19.22274828,42.45508815]}},{"type":"Feature","properties":{"name":"Milana Raičkovića II (B)","id":1739,"type":"bus-stop","line_id":105},"geometry":{"type":"Point","coordinates":[19.22641754,42.45430052]}},{"type":"Feature","properties":{"name":"Milana Raičkovića I (B)","id":1740,"type":"bus-stop","line_id":105},"geometry":{"type":"Point","coordinates":[19.22822535,42.4538691]}},{"type":"Feature","properties":{"name":"Boška Buhe II (B)","id":1741,"type":"bus-stop","line_id":105},"geometry":{"type":"Point","coordinates":[19.2305696,42.45328332]}},{"type":"Feature","properties":{"name":"Boška Buhe I (B)","id":1742,"type":"bus-stop","line_id":105},"geometry":{"type":"Point","coordinates":[19.23255444,42.45552352]}},{"type":"Feature","properties":{"name":"Donji Vranići (B)","id":1743,"type":"bus-stop","line_id":105},"geometry":{"type":"Point","coordinates":[19.23385802,42.45705639]}},{"type":"Feature","properties":{"name":"Dalmatinska III (B)","id":1744,"type":"bus-stop","line_id":105},"geometry":{"type":"Point","coordinates":[19.24109459,42.45049681]}},{"type":"Feature","properties":{"name":"Dalmatinska II (B)","id":1745,"type":"bus-stop","line_id":105},"geometry":{"type":"Point","coordinates":[19.24313331,42.44929074]}},{"type":"Feature","properties":{"name":"Dalmatinska I (B)","id":1746,"type":"bus-stop","line_id":105},"geometry":{"type":"Point","coordinates":[19.24444735,42.44854539]}},{"type":"Feature","properties":{"name":"Mala pijaca (B)","id":1699,"type":"bus-stop","line_id":105},"geometry":{"type":"Point","coordinates":[19.24936652,42.44507385]}},{"type":"Feature","properties":{"name":"Bulevar Svetog Petra Cetinjskog I (B)","id":1511,"type":"bus-stop","line_id":105},"geometry":{"type":"Point","coordinates":[19.252771,42.441624]}},{"type":"Feature","properties":{"name":"Most Braće Zlatičanin (B)","id":1489,"type":"bus-stop","line_id":105},"geometry":{"type":"Point","coordinates":[19.26202118,42.43868445]}},{"type":"Feature","properties":{"name":"Ul. Oktobarske revolucije II (B)","id":1628,"type":"bus-stop","line_id":105},"geometry":{"type":"Point","coordinates":[19.26175296,42.43518861]}},{"type":"Feature","properties":{"name":"Ul. Oktobarske revolucije I (B)","id":1490,"type":"bus-stop","line_id":105},"geometry":{"type":"Point","coordinates":[19.26511157,42.43419723]}},{"type":"Feature","properties":{"name":"Trg Golootočkih žrtava (B)","id":1512,"type":"bus-stop","line_id":105},"geometry":{"type":"Point","coordinates":[19.26826,42.43257947]}}]}